[{"nom":"TEP NEUVE SAINT PIERRE","url":"http://www.webvilles.net/sports/activites/140062/terrain-de-mini--basket-ball-paris.php","adresse":"Tep Neuve Saint Pierre Paris 5 Rue Neuve St Pierre 75004 Paris","arrondissement":"75004","longitude":"2.36295000","lattitude":"48.85351000","dimensions":"160.00","revetement":"Synthétique (hors gazon)","decouvert":"Découvert","eclairage":"oui"},{"nom":"TEP JARDINS SAINT PAUL","url":"http://www.webvilles.net/sports/activites/140068/terrain-de-basket-ball-paris.php","adresse":"Tep Jardins Saint Paul Paris 9 Rue Charlemagne 75004 Paris","arrondissement":"75004","longitude":"2.36016000","lattitude":"48.85320000","dimensions":"364.00","revetement":"Synthétique (hors gazon)","decouvert":"Découvert","eclairage":"non"},{"nom":"LYCEE DE LA ROCHEFOUCAULT","url":"http://www.webvilles.net/sports/activites/140277/terrain-de-basket-ball-paris.php","adresse":"Lycee De La Rochefoucault (Etablissement scolaire) Paris 22 Rue Malar 75007 Paris","arrondissement":"75007","longitude":"2.30541000","lattitude":"48.86020000","dimensions":"448.00","revetement":"Bitume","decouvert":"Découvert","eclairage":"non"},{"nom":"LYCEE VICTOR DURUY","url":"http://www.webvilles.net/sports/activites/140286/terrain-de-basket-ball-paris.php","adresse":"Lycee Victor Duruy (Etablissement scolaire) Paris 33 Boulevard Des Invalides 75007 Paris","arrondissement":"75007","longitude":"2.31565000","lattitude":"48.85330000","dimensions":"580.00","revetement":"Béton","decouvert":"Découvert","eclairage":"non"},{"nom":"ETABLISSEMENT FENELON","url":"http://www.webvilles.net/sports/activites/140334/terrain-de-basket-ball-paris.php","adresse":"Etablissement Fenelon Paris 47 Rue De Naples 75008 Paris","arrondissement":"75008","longitude":"2.31718000","lattitude":"48.87867000","dimensions":"216.00","revetement":"Bitume","decouvert":"Découvert","eclairage":"oui"},{"nom":"LYCEE CONDORCET","url":"http://www.webvilles.net/sports/activites/140405/terrain-de-basket-ball-paris.php","adresse":"Lycee Condorcet (Etablissement scolaire) Paris 8 Rue Du Havre 75009 Paris","arrondissement":"75009","longitude":"2.32743000","lattitude":"48.87484000","dimensions":"375.00","revetement":"Béton","decouvert":"Découvert","eclairage":"non"},{"nom":"CITE SCOLAIRE LAMARTINE","url":"http://www.webvilles.net/sports/activites/140410/terrain-de-basket-ball-paris.php","adresse":"Cite Scolaire Lamartine (Etablissement scolaire) Paris 121 Rue Du Faubourg Poissonniere 75009 Paris","arrondissement":"75009","longitude":"2.34848000","lattitude":"48.87838000","dimensions":"608.00","revetement":"Béton","decouvert":"Découvert","eclairage":"oui"},{"nom":"LYCEE JACQUES DECOUR","url":"http://www.webvilles.net/sports/activites/140414/terrain-de-basket-ball-paris.php","adresse":"Lycee Jacques Decour (Etablissement scolaire) Paris 12 Avenue Trudaine 75009 Paris","arrondissement":"75009","longitude":"2.34311000","lattitude":"48.88223000","dimensions":"540.00","revetement":"Bitume","decouvert":"Découvert","eclairage":"non"},{"nom":"LYCEE COLBERT","url":"http://www.webvilles.net/sports/activites/140459/terrain-de-basket-ball-paris.php","adresse":"Lycee Colbert (Etablissement scolaire) 27 Rue Du Château Landon 75010 Paris","arrondissement":"75010","longitude":"2.36291000","lattitude":"48.88286000","dimensions":"480.00","revetement":"Béton","decouvert":"Découvert","eclairage":"non"},{"nom":"TEP DE MENILMONTANT","url":"http://www.webvilles.net/sports/activites/140558/terrain-de-basket-ball-paris.php","adresse":"Tep De Menilmontant Paris 49 Boulevard De Menilmontant 75011 Paris","arrondissement":"75011","longitude":"2.38694000","lattitude":"48.86111000","dimensions":"448.00","revetement":"Béton","decouvert":"Découvert","eclairage":"non"},{"nom":"ANNEXE ECOLE CHARLES PEGUY","url":"http://www.webvilles.net/sports/activites/140580/terrain-de-basket-ball---1ere-cour-paris.php","adresse":"Annexe Ecole Charles Peguy (Etablissement scolaire) Paris 64 Rue Saint Maur 75011 Paris","arrondissement":"75011","longitude":"2.37960000","lattitude":"48.86350000","dimensions":"224.00","revetement":"Béton","decouvert":"Découvert","eclairage":"non"},{"nom":"CITE SCOLAIRE VOLTAIRE","url":"http://www.webvilles.net/sports/activites/140612/terrain-de-basket-ball-paris.php","adresse":"Cite Scolaire Voltaire (Etablissement scolaire) Paris 101 Avenue De La Republique 75011 Paris","arrondissement":"75011","longitude":"2.38449000","lattitude":"48.86432000","dimensions":"464.00","revetement":"Béton","decouvert":"Découvert","eclairage":"non"},{"nom":"CENTRE SPORTIF LEO LAGRANGE","url":"http://www.webvilles.net/sports/activites/140652/terrain-de-basket-ball-n%C2%B01-2-paris.php","adresse":"Centre Sportif Leo Lagrange 68 Boulevard Poniatowski 75012 Paris","arrondissement":"75012","longitude":"2.40004000","lattitude":"48.83219000","dimensions":"392.00","revetement":"Bitume","decouvert":"Découvert","eclairage":"non"},{"nom":"STADE PERSHING","url":"http://www.webvilles.net/sports/activites/140717/terrain-de-basket-ball-paris.php","adresse":"Stade Pershing Bois De Vincennes Route Du Bosquet Mortemart 75012 Paris","arrondissement":"75012","longitude":"2.45518000","lattitude":"48.83050000","dimensions":"420.00","revetement":"Bitume","decouvert":"Découvert","eclairage":"non"},{"nom":"CENTRE SPORTIF PICPUS","url":"http://www.webvilles.net/sports/activites/140728/terrain-de-basket-ball-paris.php","adresse":"Centre Sportif Picpus Paris 56 Rue De Picpus 75012 Paris","arrondissement":"75012","longitude":"2.39469000","lattitude":"48.84196000","dimensions":"392.00","revetement":"Bitume","decouvert":"Découvert","eclairage":"non"},{"nom":"COLLEGE SAINTE CLOTILDE","url":"http://www.webvilles.net/sports/activites/140744/terrain-de-basket-ball-paris.php","adresse":"College Sainte Clotilde (Etablissement scolaire) Paris 103 Rue De Reuilly 75012 Paris","arrondissement":"75012","longitude":"2.39323000","lattitude":"48.84364000","dimensions":"480.00","revetement":"Bitume","decouvert":"Découvert","eclairage":"non"},{"nom":"COLLEGE SAINTE CLOTILDE","url":"http://www.webvilles.net/sports/activites/140745/terrain-de-basket-ball-n%C2%B02-paris.php","adresse":"College Sainte Clotilde (Etablissement scolaire) Paris 103 Rue De Reuilly 75012 Paris","arrondissement":"75012","longitude":"2.39357000","lattitude":"48.84383000","dimensions":"416.00","revetement":"Bitume","decouvert":"Découvert","eclairage":"non"},{"nom":"STADE LEO LAGRANGE","url":"http://www.webvilles.net/sports/activites/140756/terrain-de-basket-ball-paris.php","adresse":"Stade Leo Lagrange (Complexe sportif) 68 Boulevard Poniatwoski - Bois De Vincennes 75012 Paris","arrondissement":"75012","longitude":"2.44042000","lattitude":"48.83593000","dimensions":"420.00","revetement":"Bitume","decouvert":"Découvert","eclairage":"non"},{"nom":"INSEP","url":"http://www.webvilles.net/sports/activites/140804/salle-p-3-du-centre-nelson-paillou-basket-et-volley-paris.php","adresse":"Insep (CREPS ou Ecole nationale) 11 Avenue Du Tremblay 75012 Paris","arrondissement":"75012","longitude":"2.45223600","lattitude":"48.83252100","dimensions":"790.00","revetement":"","decouvert":"Intérieur","eclairage":"oui"},{"nom":"ECOLE EUGENE NAPOLEON","url":"http://www.webvilles.net/sports/activites/140868/terrain-de-basket-ball-paris.php","adresse":"Ecole Eugene Napoleon (Etablissement scolaire) Paris 254 Rue Du Faubourg Saint Antoine 75012 Paris","arrondissement":"75012","longitude":"2.39080000","lattitude":"48.84816000","dimensions":"200.00","revetement":"Bitume","decouvert":"Découvert","eclairage":"non"},{"nom":"COLLEGE GEORGES COURTELINE","url":"http://www.webvilles.net/sports/activites/140874/terrain-de-basket-paris.php","adresse":"College Georges Courteline (Etablissement scolaire) Paris 48 Avenue Docteur Arnold Netter 75012 Paris","arrondissement":"75012","longitude":"2.40619500","lattitude":"48.84365300","dimensions":"322.00","revetement":"Béton","decouvert":"Découvert","eclairage":"non"},{"nom":"CENTRE SPORTIF CHARLES MOUREU","url":"http://www.webvilles.net/sports/activites/140960/terrain-basket-ball-n%C2%B01-paris.php","adresse":"Centre Sportif Charles Moureu Paris 17 Avenue Edison 75013 Paris","arrondissement":"75013","longitude":"2.36251000","lattitude":"48.82791000","dimensions":"364.00","revetement":"Bitume","decouvert":"Découvert","eclairage":"oui"},{"nom":"CENTRE SPORTIF CHARLES MOUREU","url":"http://www.webvilles.net/sports/activites/140962/terrain-de-basket-ball-n%C2%B02-paris.php","adresse":"Centre Sportif Charles Moureu Paris 17 Avenue Edison 75013 Paris","arrondissement":"75013","longitude":"2.36191000","lattitude":"48.82831000","dimensions":"364.00","revetement":"Bitume","decouvert":"Découvert","eclairage":"non"},{"nom":"CENTRE SPORTIF AUGUSTE BLANQUI","url":"http://www.webvilles.net/sports/activites/140979/terrain-de-basket-ball-paris.php","adresse":"Centre Sportif Auguste Blanqui Paris 26 Boulevard Auguste Blanqui 75013 Paris","arrondissement":"75013","longitude":"2.35116000","lattitude":"48.83072000","dimensions":"331.00","revetement":"Synthétique (hors gazon)","decouvert":"Découvert","eclairage":"non"},{"nom":"CENTRE SPORTIF DU DOCTEUR BOURNEVILLE KELLERMANN","url":"http://www.webvilles.net/sports/activites/140995/terrain-de-basket-ball-paris.php","adresse":"Centre Sportif Du Docteur Bourneville Kellermann Paris 5 Rue Du Docteur Bourneville 75013 Paris","arrondissement":"75013","longitude":"2.35666000","lattitude":"48.81849000","dimensions":"800.00","revetement":"Bitume","decouvert":"Découvert","eclairage":"oui"},{"nom":"TEP DUNOIS","url":"http://www.webvilles.net/sports/activites/141006/terrain-de-handball-et-de-basket-ball-paris.php","adresse":"Tep Dunois Paris 59 Rue Dunois 75013 Paris","arrondissement":"75013","longitude":"2.36609000","lattitude":"48.83230000","dimensions":"285.00","revetement":"Bitume","decouvert":"Découvert","eclairage":"non"},{"nom":"CITE SCOLAIRE RODIN","url":"http://www.webvilles.net/sports/activites/141023/terrain-de-basket-ball-2-paris.php","adresse":"Cite Scolaire Rodin Paris 19 Rue Corvisart 75013 Paris","arrondissement":"75013","longitude":"2.34809000","lattitude":"48.83211000","dimensions":"640.00","revetement":"Bitume","decouvert":"Découvert","eclairage":"non"},{"nom":"CITE SCOLAIRE RODIN","url":"http://www.webvilles.net/sports/activites/141024/terrain-de-basket-ball-1-paris.php","adresse":"Cite Scolaire Rodin Paris 19 Rue Corvisart 75013 Paris","arrondissement":"75013","longitude":"2.34795000","lattitude":"48.83220000","dimensions":"308.00","revetement":"Bitume","decouvert":"Découvert","eclairage":"non"},{"nom":"TERRAINS CARPENTIER","url":"http://www.webvilles.net/sports/activites/141032/terrains-de-basket-ball-paris.php","adresse":"Terrains Carpentier Paris 81 Boulevard Massena 75013 Paris","arrondissement":"75013","longitude":"2.36675000","lattitude":"48.81952000","dimensions":"420.00","revetement":"Synthétique (hors gazon)","decouvert":"Découvert","eclairage":""},{"nom":"TERRAIN DE BASKET BALL AUGUSTE BLANQUI","url":"http://www.webvilles.net/sports/activites/141033/terrain-de-basket-ball---playground-paris.php","adresse":"Terrain De Basket Ball Auguste Blanqui Paris 90 Boulevard Auguste Blanqui 75013 Paris","arrondissement":"75013","longitude":"2.34487000","lattitude":"48.83073000","dimensions":"130.00","revetement":"Bitume","decouvert":"Découvert","eclairage":"0"},{"nom":"JARDIN ILOT DES DEUX MOULINS","url":"http://www.webvilles.net/sports/activites/141042/terrain-de-basket-ball-paris.php","adresse":"Jardin Ilot Des Deux Moulins Paris Bd Vincent Auriol 75013 Paris","arrondissement":"75013","longitude":"2.36869000","lattitude":"48.83516000","dimensions":"150.00","revetement":"Béton","decouvert":"Découvert","eclairage":""},{"nom":"ECOLE NATIONALE CHIMIE PHYSIQUE BIOLOGIE","url":"http://www.webvilles.net/sports/activites/141083/terrains-de-basket-ball-paris.php","adresse":"Ecole Nationale Chimie Physique Biologie (Etablissement scolaire) Paris 11 Rue Pirandello 75013 Paris","arrondissement":"75013","longitude":"2.35749000","lattitude":"48.83684000","dimensions":"330.00","revetement":"Bitume","decouvert":"Découvert","eclairage":"non"},{"nom":"LYCEE GABRIEL FAURE","url":"http://www.webvilles.net/sports/activites/141102/terrain-de-basket-ball-paris.php","adresse":"Lycee Gabriel Faure (Etablissement scolaire) Paris 81 Avenue De Choisy 75013 Paris","arrondissement":"75013","longitude":"2.36024000","lattitude":"48.82382000","dimensions":"600.00","revetement":"Bitume","decouvert":"Découvert","eclairage":"non"},{"nom":"LYCEE COLLEGE CLAUDE MONET","url":"http://www.webvilles.net/sports/activites/141105/terrain-de-basket-ball-paris.php","adresse":"Lycee College Claude Monet (Etablissement scolaire) Paris 1 Rue Du Docteur Magnan 75013 Paris","arrondissement":"75013","longitude":"2.36184000","lattitude":"48.82678000","dimensions":"760.00","revetement":"Bitume","decouvert":"Découvert","eclairage":"non"},{"nom":"GROUPE SCOLAIRE YABNE","url":"http://www.webvilles.net/sports/activites/141118/terrain-de-basket-ball-paris.php","adresse":"Groupe Scolaire Yabne (Etablissement scolaire) Paris 29 Avenue Leon Bolle 75013 Paris","arrondissement":"75013","longitude":"2.36162000","lattitude":"48.81752000","dimensions":"288.00","revetement":"Béton","decouvert":"Découvert","eclairage":"non"},{"nom":"CITE INTERNATIONALE UNIVERSITAIRE DE PARIS","url":"http://www.webvilles.net/sports/activites/141150/terrain-de-basket-ball---stade-ouest-paris.php","adresse":"Cite Internationale Universitaire De Paris (Etablissement scolaire) 17 Boulevard Jourdan 75014 Paris","arrondissement":"75014","longitude":"2.33109000","lattitude":"48.81910000","dimensions":"608.00","revetement":"Synthétique (hors gazon)","decouvert":"Découvert","eclairage":"oui"},{"nom":"JARDIN D'IMMEUBLES RAYMOND LOSSERAND","url":"http://www.webvilles.net/sports/activites/141650/terrain-basket-ball-paris.php","adresse":"Jardin D'Immeubles Raymond Losserand Rue Raymond Losserand / 10 Rue Paturle 75014 Paris","arrondissement":"75014","longitude":"2.30654000","lattitude":"48.82883000","dimensions":"180.00","revetement":"Béton","decouvert":"Découvert","eclairage":""},{"nom":"JARDIN HENRI ET ACHILLE DUCHENE","url":"http://www.webvilles.net/sports/activites/141653/terrain-de-basket-ball-paris.php","adresse":"Jardin Henri Et Achille Duchene 144 Rue Vercingetorix 75014 Paris","arrondissement":"75014","longitude":"2.30994000","lattitude":"48.83204000","dimensions":"240.00","revetement":"Synthétique (hors gazon)","decouvert":"Découvert","eclairage":""},{"nom":"SQUARE DE L'ABBE LEMIRE","url":"http://www.webvilles.net/sports/activites/141655/terrain-de-basket-ball-paris.php","adresse":"Square De L'Abbe Lemire 78-108 Rue Vercingetorix 75014 Paris","arrondissement":"75014","longitude":"2.31495000","lattitude":"48.83543000","dimensions":"300.00","revetement":"Synthétique (hors gazon)","decouvert":"Découvert","eclairage":""},{"nom":"COLLEGE JEAN MOULIN","url":"http://www.webvilles.net/sports/activites/141666/terrain-de-basket-ball-paris.php","adresse":"College Jean Moulin (Etablissement scolaire) 75 Rue D'Alesia 75014 Paris","arrondissement":"75014","longitude":"2.32746000","lattitude":"48.82729000","dimensions":"126.00","revetement":"Bitume","decouvert":"Découvert","eclairage":"non"},{"nom":"LYCEE PAUL BERT","url":"http://www.webvilles.net/sports/activites/141675/terrain-de-basket-ball-paris.php","adresse":"Lycee Paul Bert (Etablissement scolaire) 7 Rue Huyghens 75014 Paris","arrondissement":"75014","longitude":"2.32884000","lattitude":"48.84061000","dimensions":"289.00","revetement":"Bitume","decouvert":"Découvert","eclairage":"non"},{"nom":"CENTRE SPORTIF EMILE ANTHOINE","url":"http://www.webvilles.net/sports/activites/141787/terrain-de-basket-ball-paris.php","adresse":"Centre Sportif Emile Anthoine (Piscine) 9 Rue Jean Rey 75015 Paris","arrondissement":"75015","longitude":"2.29069000","lattitude":"48.85640000","dimensions":"390.00","revetement":"Synthétique (hors gazon)","decouvert":"Découvert","eclairage":"non"},{"nom":"CENTRE SPORTIF SUZANNE LENGLEN","url":"http://www.webvilles.net/sports/activites/141810/terrain-de-basket-ball-n%C2%B01-paris.php","adresse":"Centre Sportif Suzanne Lenglen 2 Rue Louis Armand 75015 Paris","arrondissement":"75015","longitude":"2.26839000","lattitude":"48.82880000","dimensions":"364.00","revetement":"Bitume","decouvert":"Découvert","eclairage":"non"},{"nom":"CENTRE SPORTIF SUZANNE LENGLEN","url":"http://www.webvilles.net/sports/activites/141815/terrain-de-basket-ball-n%C2%B02-paris.php","adresse":"Centre Sportif Suzanne Lenglen 2 Rue Louis Armand 75015 Paris","arrondissement":"75015","longitude":"2.26839000","lattitude":"48.82880000","dimensions":"968.00","revetement":"Bitume","decouvert":"Découvert","eclairage":"non"},{"nom":"ECOLE SAINT JOSEPH","url":"http://www.webvilles.net/sports/activites/141880/terrain-de-basket-ball-paris.php","adresse":"Ecole Saint Joseph (Etablissement scolaire) 13 Place Etienne Pernet 75015 Paris","arrondissement":"75015","longitude":"2.29259000","lattitude":"48.84300000","dimensions":"414.00","revetement":"Bitume","decouvert":"Découvert","eclairage":"oui"},{"nom":"COLLEGE MODIGLIANI","url":"http://www.webvilles.net/sports/activites/141896/terrain-de-basket-ball-paris.php","adresse":"College Modigliani (Etablissement scolaire) Paris 1 Rue De Cherbourg 75015 Paris","arrondissement":"75015","longitude":"2.30475000","lattitude":"48.83180000","dimensions":"208.00","revetement":"Bitume","decouvert":"Découvert","eclairage":"non"},{"nom":"INSTITUT SAINT JEAN DE DIEU","url":"http://www.webvilles.net/sports/activites/141907/terrain-de-basket-ball-paris.php","adresse":"Institut Saint Jean De Dieu (Etablissement scolaire) 223 Rue Lecourbe 75015 Paris","arrondissement":"75015","longitude":"2.29364000","lattitude":"48.83920000","dimensions":"540.00","revetement":"Synthétique (hors gazon)","decouvert":"Découvert","eclairage":"oui"},{"nom":"STADE PORTE DE LA MUETTE","url":"http://www.webvilles.net/sports/activites/141952/terrain-de-basket-ball-n%C2%B01-2-paris.php","adresse":"Stade Porte De La Muette 60 Boulevard Lannes 75016 Paris","arrondissement":"75016","longitude":"2.26915400","lattitude":"48.86429000","dimensions":"420.00","revetement":"Surface naturelle","decouvert":"Découvert","eclairage":"non"},{"nom":"STADE PORTE DE LA MUETTE","url":"http://www.webvilles.net/sports/activites/141956/terrain-de-basket-ball-paris.php","adresse":"Stade Porte De La Muette 60 Boulevard Lannes 75016 Paris","arrondissement":"75016","longitude":"2.26901900","lattitude":"48.86406900","dimensions":"162.00","revetement":"Synthétique (hors gazon)","decouvert":"Découvert","eclairage":"oui"},{"nom":"STADE SUCHET","url":"http://www.webvilles.net/sports/activites/141971/terrain-de-basket-ball-n%C2%B01-2-paris.php","adresse":"Stade Suchet 26 Avenue Du Marechal Franchet D'Esperey 75016 Paris","arrondissement":"75016","longitude":"2.26223000","lattitude":"48.85450000","dimensions":"665.00","revetement":"Bitume","decouvert":"Découvert","eclairage":"non"},{"nom":"CERCLE DU BOIS DE BOULOGNE","url":"http://www.webvilles.net/sports/activites/142048/terrain-de-basket-ball-paris.php","adresse":"Cercle Du Bois De Boulogne Route De L'Etoile 75016 Paris","arrondissement":"75016","longitude":"2.25887000","lattitude":"48.87200000","dimensions":"330.00","revetement":"Béton","decouvert":"Découvert","eclairage":"non"},{"nom":"LYCEE JANSON DE SAILLY","url":"http://www.webvilles.net/sports/activites/142158/terrain-de-basket-ball-paris.php","adresse":"Lycee Janson De Sailly (Etablissement scolaire) 106 Rue De La Pompe 75016 Paris","arrondissement":"75016","longitude":"2.27945000","lattitude":"48.86550000","dimensions":"350.00","revetement":"Bitume","decouvert":"Découvert","eclairage":"non"},{"nom":"LYCEE DE L'ASSOMPTION","url":"http://www.webvilles.net/sports/activites/142173/terrain-de-basket-ball-paris.php","adresse":"Lycee De L'Assomption (Etablissement scolaire) 6 Rue Lubeck 75016 Paris","arrondissement":"75016","longitude":"2.29410000","lattitude":"48.86710000","dimensions":"168.00","revetement":"Bitume","decouvert":"Découvert","eclairage":"non"},{"nom":"LYCEE JEAN BAPTISTE SAY","url":"http://www.webvilles.net/sports/activites/142178/terrain-de-basket-ball-paris.php","adresse":"Lycee Jean Baptiste Say (Etablissement scolaire) 11 bis Rue D'Auteuil 75016 Paris","arrondissement":"75016","longitude":"2.27486000","lattitude":"48.84760000","dimensions":"420.00","revetement":"Bitume","decouvert":"Découvert","eclairage":"non"},{"nom":"CENTRE SPORTIF MAX ROUSIE","url":"http://www.webvilles.net/sports/activites/142262/terrain-de-basket-ball-paris.php","adresse":"Centre Sportif Max Rousie 28 Rue Andre Brechet 75017 Paris","arrondissement":"75017","longitude":"2.32613000","lattitude":"48.89970000","dimensions":"300.00","revetement":"Synthétique (hors gazon)","decouvert":"Découvert","eclairage":"oui"},{"nom":"LYCéE HONORE DE BALZAC","url":"http://www.webvilles.net/sports/activites/142316/terrain-de-basket-ball-paris.php","adresse":"Lycée Honore De Balzac (Etablissement scolaire) 118 Boulevard Bessieres 75017 Paris","arrondissement":"75017","longitude":"2.32831000","lattitude":"48.89630000","dimensions":"225.00","revetement":"Bitume","decouvert":"Découvert","eclairage":"non"},{"nom":"LYCEE CARNOT","url":"http://www.webvilles.net/sports/activites/142329/terrain-de-basket-ball-paris.php","adresse":"Lycee Carnot (Etablissement scolaire) 145 Boulevard Malesherbes 75017 Paris","arrondissement":"75017","longitude":"2.30691000","lattitude":"48.88800000","dimensions":"299.00","revetement":"Bitume","decouvert":"Découvert","eclairage":"oui"},{"nom":"CENTRE SPORTIF BERTRAND DAUVIN","url":"http://www.webvilles.net/sports/activites/142358/terrain-de-basket-ball-paris.php","adresse":"Centre Sportif Bertrand Dauvin (Complexe sportif) 12 Rue Rene Binet 75018 Paris","arrondissement":"75018","longitude":"2.34247000","lattitude":"48.89948000","dimensions":"300.00","revetement":"Synthétique (hors gazon)","decouvert":"Découvert","eclairage":"oui"},{"nom":"CENTRE SPORTIF CHAMPIONNET","url":"http://www.webvilles.net/sports/activites/142377/terrain-basket-ball-paris.php","adresse":"Centre Sportif Championnet 172 Rue Championnet 75018 Paris","arrondissement":"75018","longitude":"2.34847000","lattitude":"48.89520000","dimensions":"800.00","revetement":"Synthétique (hors gazon)","decouvert":"Découvert","eclairage":"oui"},{"nom":"CENTRE SPORTIF DES FILLETTES","url":"http://www.webvilles.net/sports/activites/142392/terrain-de-basket-ball-paris.php","adresse":"Centre Sportif Des Fillettes 54 Boulevard Ney 75018 Paris","arrondissement":"75018","longitude":"2.36331000","lattitude":"48.89860000","dimensions":"392.00","revetement":"Bitume","decouvert":"Découvert","eclairage":"non"},{"nom":"COLLEGE MARX DORMOY","url":"http://www.webvilles.net/sports/activites/142456/terrain-de-basket-ball-paris.php","adresse":"College Marx Dormoy (Etablissement scolaire) 55 Rue Marx Dormoy 75018 Paris","arrondissement":"75018","longitude":"2.35977000","lattitude":"48.88880000","dimensions":"300.00","revetement":"Bitume","decouvert":"Découvert","eclairage":"non"},{"nom":"SQUARE LEON","url":"http://www.webvilles.net/sports/activites/142460/terrain-de-basket-ball-paris.php","adresse":"Square Leon 20 Rue Des Gardes 75018 Paris","arrondissement":"75018","longitude":"2.35300000","lattitude":"48.88650000","dimensions":"176.00","revetement":"Béton","decouvert":"Découvert","eclairage":"0"},{"nom":"SQUARE RAYMOND QUENEAU","url":"http://www.webvilles.net/sports/activites/142463/terrain-de-basket-ball-paris.php","adresse":"Square Raymond Queneau 22 Rue Raymond Queneau 75018 Paris","arrondissement":"75018","longitude":"2.36091300","lattitude":"48.89608400","dimensions":"","revetement":"Béton","decouvert":"Découvert","eclairage":"0"},{"nom":"CENTRE SPORTIF EDOUARD PAILLERON","url":"http://www.webvilles.net/sports/activites/142478/terrain-de-basket-ball-paris.php","adresse":"Centre Sportif Edouard Pailleron 24 Rue Edouard Pailleron 75019 Paris","arrondissement":"75019","longitude":"2.37721000","lattitude":"48.88070000","dimensions":"720.00","revetement":"Bitume","decouvert":"Découvert","eclairage":"non"},{"nom":"COLLEGE-LYCEE BERGSON","url":"http://www.webvilles.net/sports/activites/142515/terrain-de-basket-ball-cour-zero-paris.php","adresse":"College-Lycee Bergson (Etablissement scolaire) 27 Rue Edouard Pailleron 75019 Paris","arrondissement":"75019","longitude":"2.37710000","lattitude":"48.87640000","dimensions":"288.00","revetement":"Bitume","decouvert":"Découvert","eclairage":"oui"},{"nom":"CENTRE SPORTIF CHAUMONT","url":"http://www.webvilles.net/sports/activites/142521/terrain-de-basket-ball-paris.php","adresse":"Centre Sportif Chaumont 22 Avenue De La Porte Chaumont 75019 Paris","arrondissement":"75019","longitude":"2.39839200","lattitude":"48.88547400","dimensions":"352.00","revetement":"Synthétique (hors gazon)","decouvert":"Découvert","eclairage":"non"},{"nom":"TEP CURIAL-CAMBRAI","url":"http://www.webvilles.net/sports/activites/142530/terrain-de-basket-ball-paris.php","adresse":"Tep Curial-Cambrai Paris 102 Rue Curial 75019 Paris","arrondissement":"75019","longitude":"2.37721000","lattitude":"48.89620000","dimensions":"200.00","revetement":"Bitume","decouvert":"Découvert","eclairage":"0"},{"nom":"TEP PIERRE REVERDY","url":"http://www.webvilles.net/sports/activites/142550/terrain-de-basket-ball-paris.php","adresse":"Tep Pierre Reverdy 4 Rue Pierre Reverdy 75019 Paris","arrondissement":"75019","longitude":"2.37620000","lattitude":"48.88544600","dimensions":"800.00","revetement":"Synthétique (hors gazon)","decouvert":"Extérieur couvert","eclairage":"non"},{"nom":"CENTRE SPORTIF LAGNY","url":"http://www.webvilles.net/sports/activites/142658/terrain-de-basket-ball-paris.php","adresse":"Centre Sportif Lagny 19 Rue Lagny 75020 Paris","arrondissement":"75020","longitude":"2.40186200","lattitude":"48.84973300","dimensions":"392.00","revetement":"Synthétique (hors gazon)","decouvert":"Découvert","eclairage":"non"},{"nom":"CENTRE SPORTIF MARYSE HILSZ","url":"http://www.webvilles.net/sports/activites/142666/terrain-de-basket-ball-paris.php","adresse":"Centre Sportif Maryse Hilsz 34 Rue Maryse Hilsz 75020 Paris","arrondissement":"75020","longitude":"2.41379600","lattitude":"48.85270700","dimensions":"365.00","revetement":"Bitume","decouvert":"Découvert","eclairage":"non"},{"nom":"JARDIN DE LA GARE DE CHARONNE","url":"http://www.webvilles.net/sports/activites/142708/terrain-de-basket-ball-paris.php","adresse":"Jardin De La Gare De Charonne 63 Bd Davout 68 Rue Volga 75020 Paris","arrondissement":"75020","longitude":"2.40949000","lattitude":"48.86760000","dimensions":"350.00","revetement":"Bitume","decouvert":"Découvert","eclairage":"0"},{"nom":"LYCEE COLLEGE MAURICE RAVEL","url":"http://www.webvilles.net/sports/activites/142735/terrain-de-basket-ball---cour-lagny-paris.php","adresse":"Lycee College Maurice Ravel (Etablissement scolaire) 89 Cours De Vincennes 75020 Paris","arrondissement":"75020","longitude":"2.40824000","lattitude":"48.84760000","dimensions":"950.00","revetement":"Bitume","decouvert":"Découvert","eclairage":"non"},{"nom":"ENSEMBLE SCOLAIRE SAINT GERMAIN DE CHARONNE LA SALLE","url":"http://www.webvilles.net/sports/activites/142741/terrain-de-basket-ball-paris.php","adresse":"Ensemble Scolaire Saint Germain De Charonne La Salle (Etablissement scolaire) 3 Rue Des Prairies 75020 Paris","arrondissement":"75020","longitude":"2.40479000","lattitude":"48.86110000","dimensions":"216.00","revetement":"Bitume","decouvert":"Découvert","eclairage":"oui"},{"nom":"COLLEGE PIERRE MENDES FRANCE","url":"http://www.webvilles.net/sports/activites/142755/terrain-de-basket-ball-paris.php","adresse":"College Pierre Mendes France (Etablissement scolaire) 24 Rue Le Vau 75020 Paris","arrondissement":"75020","longitude":"2.41103200","lattitude":"48.86909800","dimensions":"714.00","revetement":"Bitume","decouvert":"Découvert","eclairage":"oui"},{"nom":"SQUARE LEON FRAPIE","url":"http://www.webvilles.net/sports/activites/142758/terrain-de-basket-ball-paris.php","adresse":"Square Leon Frapie Rue Léon Frapié 75020 Paris","arrondissement":"75020","longitude":"2.41124000","lattitude":"48.87280000","dimensions":"420.00","revetement":"Bitume","decouvert":"Découvert","eclairage":"0"},{"nom":"TERRAIN DE BASKET CHARRIERE","url":"http://www.webvilles.net/sports/activites/338458/terrain-de-basket-paris.php","adresse":"Terrain De Basket Charriere 8 Rue Charriere 75011 Paris","arrondissement":"75011","longitude":"2.38180000","lattitude":"48.85336000","dimensions":"225.00","revetement":"Bitume","decouvert":"Découvert","eclairage":"non"},{"nom":"COLLEGE ANDRE MALRAUX","url":"http://www.webvilles.net/sports/activites/340803/terrain-de-basket-ball-paris.php","adresse":"College Andre Malraux (Etablissement scolaire) 5 bis Rue Saint Ferdinand 75017 Paris","arrondissement":"75017","longitude":"2.29082000","lattitude":"48.87890000","dimensions":"200.00","revetement":"Béton","decouvert":"Découvert","eclairage":"non"},{"nom":"ECOLE BRANCION","url":"http://www.webvilles.net/sports/activites/349605/terrain-de-basket-ball-paris.php","adresse":"Ecole Brancion (Etablissement scolaire) 5 Avenue De La Porte De Brancion 75015 Paris","arrondissement":"75015","longitude":"2.30144700","lattitude":"48.82664300","dimensions":"200.00","revetement":"Béton","decouvert":"Découvert","eclairage":"non"},{"nom":"CENTRE D'ANIMATION WANGARI MUTA MAATHAI","url":"http://www.webvilles.net/sports/activites/351825/terrain-de-basket-ball-paris.php","adresse":"Centre D'Animation Wangari Muta Maathai 13-15 Rue Mouraud 75020 Paris","arrondissement":"75020","longitude":"2.40729300","lattitude":"48.85513100","dimensions":"800.00","revetement":"Bitume","decouvert":"Découvert","eclairage":"0"},{"nom":"COLLEGE ET COMPLEXE SPORTIF ZAC CLICHY - BATIGNOLLES","url":"http://www.webvilles.net/sports/activites/356230/terrain-de-basket-ball-paris.php","adresse":"College Et Complexe Sportif Zac Clichy - Batignolles (Etablissement scolaire) Angle Rue Christine De Pisan Et Rue Saussure 75017 Paris","arrondissement":"75017","longitude":"2.30940000","lattitude":"48.88929000","dimensions":"","revetement":"","decouvert":"Découvert","eclairage":"non"}]