[{"name":"Centre Sportif Mont Valerien","address":"44835 Rue de Suresnes","postal_code":"92050","city":"Nanterre","department":"Hauts-de-Seine","long":2.2105354999999998,"lat":48.8861111,"coating":"Bitume","open":false,"type":"Plateau EPS/Multisports/city-stades"},{"name":"Ecole Elementaire Henri Barbusse","address":"2 Rue Jules Guesde","postal_code":"92046","city":"Malakoff","department":"Hauts-de-Seine","long":2.281702,"lat":48.812059,"coating":"Synthétique (hors gazon)","open":false,"type":"Salle multisports"},{"name":"Paroisse Saint Leon Casl","address":"1 Place Cardinal Amette","postal_code":"75056","city":"Paris","department":"Paris","long":2.296931,"lat":48.850711,"coating":"Béton","open":false,"type":"Plateau EPS/Multisports/city-stades"},{"name":"City Stade Allee Du Stade","address":"1 Allee Du Stade","postal_code":"94038","city":"Haÿ-les-Roses","department":"Val-de-Marne","long":2.34358,"lat":48.77432,"coating":"Synthétique (hors gazon)","open":false,"type":"Plateau EPS/Multisports/city-stades"},{"name":"Gymnase Jean Moulin","address":"16 Avenue Jean Moulin","postal_code":"93048","city":"Montreuil","department":"Seine-Saint-Denis","long":2.45034,"lat":48.85938,"coating":"Synthétique (hors gazon)","open":false,"type":"Salle multisports"},{"name":"Espace Lionel Terray","address":"164 Bis Avenue Du President Kennedy","postal_code":"92002","city":"Antony","department":"Hauts-de-Seine","long":2.28698,"lat":48.73566,"coating":"Parquet","open":false,"type":"Salle multisports"},{"name":"Complexe Sportif Colette Besson","address":"26 Rue Des Plessis Briard","postal_code":"91182","city":"Courcouronnes","department":"Essonne","long":2.40822,"lat":48.63282,"coating":"Bitume","open":false,"type":"Plateau EPS/Multisports/city-stades"},{"name":"Terrain de Sport","address":"27 Route de Rambouillet","postal_code":"78557","city":"Saint-Hilarion","department":"Yvelines","long":1.73399,"lat":48.61982,"coating":"Synthétique (hors gazon)","open":false,"type":"Plateau EPS/Multisports/city-stades"},{"name":"Gymnase Ex Pompiers","address":"5 Rue Ampère","postal_code":"93070","city":"Saint-Ouen","department":"Seine-Saint-Denis","long":2.33575,"lat":48.91078,"coating":"Synthétique (hors gazon)","open":false,"type":"Salle multisports"},{"name":"Gymnase Colette Besson","address":"1 Rue Paul Eluard","postal_code":"94033","city":"Fontenay-sous-Bois","department":"Val-de-Marne","long":2.481676,"lat":48.856682,"coating":"Synthétique (hors gazon)","open":false,"type":"Salle multisports"},{"name":"Centre Sportif Saint Germain","address":"12 Rue Lobineau","postal_code":"75056","city":"Paris","department":"Paris","long":2.33595,"lat":48.85157,"coating":"Parquet","open":false,"type":"Salle multisports"},{"name":"College Henri Barbusse","address":"23 Rue de Sevran","postal_code":"93066","city":"Saint-Denis","department":"Seine-Saint-Denis","long":2.37693,"lat":48.93949,"coating":"Bitume","open":false,"type":"Terrain de basket-ball"},{"name":"Square Gustave Courbet","address":"51 Sentier Des Sablons","postal_code":"94016","city":"Cachan","department":"Val-de-Marne","long":2.33996,"lat":48.78684,"coating":"Bitume","open":false,"type":"Plateau EPS/Multisports/city-stades"},{"name":"Gymnase La Courtille","address":"26 Rue Jacques Vaché","postal_code":"93066","city":"Saint-Denis","department":"Seine-Saint-Denis","long":2.380399,"lat":48.940702,"coating":"Synthétique (hors gazon)","open":false,"type":"Salle multisports"},{"name":"Gymnase Leo Lagrange","address":"24 Route Du Plessis","postal_code":"94017","city":"Champigny-sur-Marne","department":"Val-de-Marne","long":2.551615,"lat":48.804229,"coating":"Parquet","open":false,"type":"Salle multisports"},{"name":"Centre Sportif Universitaire","address":"200 Avenue de La Republique","postal_code":"92050","city":"Nanterre","department":"Hauts-de-Seine","long":2.21312,"lat":48.904098,"coating":"Synthétique (hors gazon)","open":false,"type":"Salle multisports"},{"name":"Ensemble Sportif Corneille","address":"39 Bis Rue Corneille","postal_code":"78158","city":"Chesnay","department":"Yvelines","long":2.13298,"lat":48.82499,"coating":"Synthétique (hors gazon)","open":false,"type":"Salle multisports"},{"name":"Ecole Saint Michel de Picpus","address":"10 Ter Rue Jeanne D'Arc","postal_code":"94067","city":"Saint-Mandé","department":"Val-de-Marne","long":2.41858,"lat":48.83962,"coating":"Synthétique (hors gazon)","open":false,"type":"Salle multisports"},{"name":"Complexe Sportif Bas Coquarts","address":"8 Avenue de Montrouge","postal_code":"92014","city":"Bourg-la-Reine","department":"Hauts-de-Seine","long":2.31233,"lat":48.78646,"coating":"Bitume","open":false,"type":"Plateau EPS/Multisports/city-stades"},{"name":"Gymnase Guimier","address":"70 Avenue Gilbert Berger","postal_code":"93073","city":"Tremblay-en-France","department":"Seine-Saint-Denis","long":2.57882,"lat":48.94868,"coating":"Bitume","open":false,"type":"Plateau EPS/Multisports/city-stades"},{"name":"Citystade Square Hector Berlioz","address":"42921 Square Hector Berlioz","postal_code":"94046","city":"Maisons-Alfort","department":"Val-de-Marne","long":2.441761,"lat":48.798161,"coating":"Béton","open":false,"type":"Plateau EPS/Multisports/city-stades"},{"name":"Gymnase Christian Cabrol","address":"57 Rue Gustave Flaubert","postal_code":"91477","city":"Palaiseau","department":"Essonne","long":2.25818,"lat":48.71817,"coating":"Bitume","open":false,"type":"Plateau EPS/Multisports/city-stades"},{"name":"Epide, Etablissement Public D'Insertion A La Defense","address":"50 Avenue Du 27 Aout 1944","postal_code":"77315","city":"Montry","department":"Seine-et-Marne","long":2.81698,"lat":48.88742,"coating":"Parquet","open":false,"type":"Salle multisports"},{"name":"Lycee Eugene Delacroix (Gymnase)","address":"5 Rue Pierre Curie","postal_code":"94046","city":"Maisons-Alfort","department":"Val-de-Marne","long":2.426649,"lat":48.810213,"coating":"Synthétique (hors gazon)","open":false,"type":"Salle multisports"},{"name":"Gymnase Langevin-Wallon","address":"13 Rue Henri Gatinot","postal_code":"92020","city":"Châtillon","department":"Hauts-de-Seine","long":2.29345,"lat":48.80525,"coating":"Bitume","open":false,"type":"Plateau EPS/Multisports/city-stades"},{"name":"College Stanilas","address":"22 Rue Notre Dame Des Champs","postal_code":"75056","city":"Paris","department":"Paris","long":2.32716,"lat":48.84535,"coating":"Synthétique (hors gazon)","open":false,"type":"Salle multisports"},{"name":"Stade Du General Monclar","address":"55 Boulevard Du Parc","postal_code":"92051","city":"Neuilly-sur-Seine","department":"Hauts-de-Seine","long":2.26076,"lat":48.8912,"coating":"Synthétique (hors gazon)","open":false,"type":"Plateau EPS/Multisports/city-stades"},{"name":"Parc Interdepartemental Des Sports Et de Loisirs Le Tremblay","address":"11 Boulevard Des Allies","postal_code":"94017","city":"Champigny-sur-Marne","department":"Val-de-Marne","long":2.48861,"lat":48.825427,"coating":"Béton","open":false,"type":"Plateau EPS/Multisports/city-stades"},{"name":"Cosec Casalis","address":"33 Avenue Du Docteur Paul Casalis","postal_code":"94028","city":"Créteil","department":"Val-de-Marne","long":2.47221,"lat":48.7799,"coating":"Bitume","open":false,"type":"Plateau EPS/Multisports/city-stades"},{"name":"Cosom Des Renardieres","address":"52 Rue de Strasbourg","postal_code":"92026","city":"Courbevoie","department":"Hauts-de-Seine","long":2.25061,"lat":48.89242,"coating":"Synthétique (hors gazon)","open":false,"type":"Salle multisports"},{"name":"Gymnase Jean Reneault","address":"56 Avenue de La République","postal_code":"93006","city":"Bagnolet","department":"Seine-Saint-Denis","long":2.41728,"lat":48.86069,"coating":"Synthétique (hors gazon)","open":false,"type":"Salle multisports"},{"name":"Gymnase Tommie Smith","address":"44 Rue Eugène Berthoud","postal_code":"93070","city":"Saint-Ouen","department":"Seine-Saint-Denis","long":2.34709,"lat":48.90458,"coating":"Bitume","open":false,"type":"Terrain de basket-ball"},{"name":"Centre Sportif Georges Carpentier","address":"81 Boulevard Massena","postal_code":"75056","city":"Paris","department":"Paris","long":2.36825,"lat":48.82062,"coating":"Parquet","open":false,"type":"Salle multisports"},{"name":"Maison D'Arret","address":"40 Avenue Vauban","postal_code":"93078","city":"Villepinte","department":"Seine-Saint-Denis","long":2.5536,"lat":48.96675,"coating":"Bitume","open":false,"type":"Plateau EPS/Multisports/city-stades"},{"name":"College Edmond Michelet","address":"70 Rue de L'Ourcq","postal_code":"75056","city":"Paris","department":"Paris","long":2.37506,"lat":48.8936,"coating":"Bitume","open":false,"type":"Plateau EPS/Multisports/city-stades"},{"name":"Ecole Elementaire D'Application Les Rochers","address":"43 Rue D'Estienne D'Orves","postal_code":"92023","city":"Clamart","department":"Hauts-de-Seine","long":2.26053,"lat":48.80658,"coating":"Bitume","open":false,"type":"Plateau EPS/Multisports/city-stades"},{"name":"Stade Brise Pain","address":"23 Allee Centrale","postal_code":"94028","city":"Créteil","department":"Val-de-Marne","long":2.47023,"lat":48.79629,"coating":"Synthétique (hors gazon)","open":false,"type":"Plateau EPS/Multisports/city-stades"},{"name":"City-Stade","address":"10 Rue Des Tilleuls","postal_code":"77409","city":"Saint-Germain-Laval","department":"Seine-et-Marne","long":2.9831000000000003,"lat":48.403,"coating":"Synthétique (hors gazon)","open":false,"type":"Plateau EPS/Multisports/city-stades"},{"name":"Gymnase Leclerc","address":"1 Boulevard de Strasbourg","postal_code":"94052","city":"Nogent-sur-Marne","department":"Val-de-Marne","long":2.473493,"lat":48.835686,"coating":"Synthétique (hors gazon)","open":false,"type":"Salle multisports"},{"name":"Groupe Scolaire Dulcie September","address":"5 Allee Chanteclair","postal_code":"94041","city":"Ivry-sur-Seine","department":"Val-de-Marne","long":2.39166,"lat":48.81984,"coating":"Synthétique (hors gazon)","open":false,"type":"Salle multisports"},{"name":"Gymnase Henri Chapu","address":"1 Bis Rue Henri Chapu","postal_code":"77186","city":"Fontainebleau","department":"Seine-et-Marne","long":2.69137,"lat":48.40463,"coating":"Synthétique (hors gazon)","open":false,"type":"Salle multisports"},{"name":"Complexe Du Racinay","address":"81 Rue D'Arbouville","postal_code":"78517","city":"Rambouillet","department":"Yvelines","long":1.82267,"lat":48.63562,"coating":"Bitume","open":false,"type":"Terrain de basket-ball"},{"name":"College Henri Barbusse","address":"69 Ter Avenue Albert Petit","postal_code":"92007","city":"Bagneux","department":"Hauts-de-Seine","long":2.3179600000000002,"lat":48.79634,"coating":"Bitume","open":false,"type":"Terrain de basket-ball"},{"name":"Complexe Sportif Marcel Paul","address":"1 Avenue Du 8 Mai 1945","postal_code":"91340","city":"Lisses","department":"Essonne","long":2.41696,"lat":48.60767,"coating":"Synthétique (hors gazon)","open":false,"type":"Salle multisports"},{"name":"Gymnase Christian Marty","address":"94 Rue Francois Rolland","postal_code":"94052","city":"Nogent-sur-Marne","department":"Val-de-Marne","long":2.482052,"lat":48.834215,"coating":"Bitume","open":false,"type":"Plateau EPS/Multisports/city-stades"},{"name":"Gymnase Robespierre","address":"8 Rue Daumier","postal_code":"94076","city":"Villejuif","department":"Val-de-Marne","long":2.37122,"lat":48.79118,"coating":"Synthétique (hors gazon)","open":false,"type":"Salle multisports"},{"name":"Stade Des Esselieres","address":"53 Rue Du Professeur Bergonie","postal_code":"94043","city":"Kremlin-Bicêtre","department":"Val-de-Marne","long":2.35187,"lat":48.80344,"coating":"Synthétique (hors gazon)","open":false,"type":"Salle multisports"},{"name":"Gymnase Couchot","address":"2 Rue Couchot","postal_code":"92012","city":"Boulogne-Billancourt","department":"Hauts-de-Seine","long":2.23283,"lat":48.83225,"coating":"Parquet","open":false,"type":"Salle multisports"},{"name":"Gymnase Georges Clemenceau","address":"11 Bis Avenue Georges Clemenceau","postal_code":"94015","city":"Bry-sur-Marne","department":"Val-de-Marne","long":2.524071,"lat":48.84075,"coating":"Béton","open":false,"type":"Plateau EPS/Multisports/city-stades"},{"name":"City-Stade","address":"4 Rue Lucie Aubrac","postal_code":"94060","city":"Queue-en-Brie","department":"Val-de-Marne","long":2.5815200000000003,"lat":48.78049,"coating":"Synthétique (hors gazon)","open":false,"type":"Plateau EPS/Multisports/city-stades"},{"name":"Gymnase Saint Exupery","address":"71 Avenue de Pince Vent","postal_code":"94055","city":"Ormesson-sur-Marne","department":"Val-de-Marne","long":2.55262,"lat":48.79203,"coating":"Synthétique (hors gazon)","open":false,"type":"Salle multisports"},{"name":"L'Espace Du Sport","address":"2 Rue Des Halliers","postal_code":"94065","city":"Rungis","department":"Val-de-Marne","long":2.34533,"lat":48.75377,"coating":"Synthétique (hors gazon)","open":false,"type":"Salle multisports"},{"name":"Terrain de Jeu Gazonne Du Pileu","address":"34 Rue Capitaine Cocart","postal_code":"91477","city":"Palaiseau","department":"Essonne","long":2.24001,"lat":48.72522,"coating":"Bitume","open":false,"type":"Plateau EPS/Multisports/city-stades"},{"name":"Plateau Eps Malnoue","address":"42827 Place Eureka","postal_code":"77169","city":"Émerainville","department":"Seine-et-Marne","long":2.5919,"lat":48.82858,"coating":"Bitume","open":false,"type":"Plateau EPS/Multisports/city-stades"},{"name":"Gymnase Henry Dunant","address":"147 Rue Henri Dunant","postal_code":"92025","city":"Colombes","department":"Hauts-de-Seine","long":2.23825,"lat":48.91868,"coating":"Synthétique (hors gazon)","open":false,"type":"Salle multisports"},{"name":"Lycee Hector Guimard","address":"19 Rue Curial","postal_code":"75056","city":"Paris","department":"Paris","long":2.37263,"lat":48.8925,"coating":"Synthétique (hors gazon)","open":false,"type":"Salle multisports"},{"name":"Gymnase Jules Ladoumegue","address":"32 Avenue de La Resistance","postal_code":"92022","city":"Chaville","department":"Hauts-de-Seine","long":2.18478,"lat":48.81154,"coating":"Synthétique (hors gazon)","open":false,"type":"Salle multisports"},{"name":"City Stade - Rue Faronville","address":"26 Rue Faronville","postal_code":"77040","city":"Boissise-le-Roi","department":"Seine-et-Marne","long":2.56496,"lat":48.50257,"coating":"Gazon synthétique","open":false,"type":"Plateau EPS/Multisports/city-stades"},{"name":"Plateau Eps Lavoisier","address":"48 Rue Du 4 Aout 1789","postal_code":"77169","city":"Émerainville","department":"Seine-et-Marne","long":2.60025,"lat":48.8306,"coating":"Bitume","open":false,"type":"Plateau EPS/Multisports/city-stades"},{"name":"Tep Neuve Saint-Pierre","address":"42921 Rue Neuve Saint-Pierre","postal_code":"75056","city":"Paris","department":"Paris","long":2.36322,"lat":48.85338,"coating":"","open":false,"type":"Salle multisports"},{"name":"Stade Émile Courtois","address":"4 Rue Pierre Loyer","postal_code":"77241","city":"Juilly","department":"Seine-et-Marne","long":2.70771,"lat":49.0086,"coating":"Bitume","open":false,"type":"Plateau EPS/Multisports/city-stades"},{"name":"Hall Des Sports Henri Wallon","address":"1 Avenue de Stalingrad","postal_code":"92007","city":"Bagneux","department":"Hauts-de-Seine","long":2.31769,"lat":48.80404,"coating":"Synthétique (hors gazon)","open":false,"type":"Salle multisports"},{"name":"Complexe Roger Freville","address":"89 Rue Nungesser Et Coli","postal_code":"93059","city":"Pierrefitte-sur-Seine","department":"Seine-Saint-Denis","long":2.36628,"lat":48.9549,"coating":"Stabilisé/cendrée","open":false,"type":"Plateau EPS/Multisports/city-stades"},{"name":"Plateau D'Évolution de L'Ecole Communale","address":"21 Rue Des Vergers","postal_code":"78470","city":"Orphin","department":"Yvelines","long":1.779573,"lat":48.578547,"coating":"Béton","open":false,"type":"Terrain de basket-ball"},{"name":"Complexe Sportif Georges Hebert","address":"11 Rue Andre Chenier","postal_code":"95203","city":"Eaubonne","department":"Val-d'Oise","long":2.29087,"lat":48.9943,"coating":"Parquet","open":false,"type":"Salle multisports"},{"name":"Gymnase Buffon","address":"13 Rue Buffon","postal_code":"75056","city":"Paris","department":"Paris","long":2.36231,"lat":48.84269,"coating":"Synthétique (hors gazon)","open":false,"type":"Salle multisports"},{"name":"Complexe Sportif Cognevaut","address":"23 Bis Rue Claret","postal_code":"95277","city":"Gonesse","department":"Val-d'Oise","long":2.44171,"lat":48.98789,"coating":"Parquet","open":false,"type":"Salle multisports"},{"name":"Gymnase Archereau","address":"61 Rue Archereau","postal_code":"75056","city":"Paris","department":"Paris","long":2.37582,"lat":48.8928,"coating":"Synthétique (hors gazon)","open":false,"type":"Salle de cours collectifs"},{"name":"Gymnase Hauts Tarterêts","address":"9 Avenue Du General de Gaulle","postal_code":"91174","city":"Corbeil-Essonnes","department":"Essonne","long":2.46307,"lat":48.618807,"coating":"Bitume","open":false,"type":"Salle multisports"},{"name":"Gymnase Jean Jaures","address":"87 Rue Louise Michel","postal_code":"93006","city":"Bagnolet","department":"Seine-Saint-Denis","long":2.43188,"lat":48.87779,"coating":"Parquet","open":false,"type":"Salle multisports"},{"name":"Tep Verdun","address":"18 Avenue de Verdun","postal_code":"75056","city":"Paris","department":"Paris","long":2.3628400000000003,"lat":48.87606,"coating":"Synthétique (hors gazon)","open":false,"type":"Terrain de basket-ball"},{"name":"College Robert Doisneau","address":"51 Rue Des Panoyaux","postal_code":"75056","city":"Paris","department":"Paris","long":2.38798,"lat":48.8695,"coating":"Synthétique (hors gazon)","open":false,"type":"Salle multisports"},{"name":"Gymnase de L'Orillon - Maurice Berlmont","address":"22 Rue de L'Orillon","postal_code":"75056","city":"Paris","department":"Paris","long":2.3764,"lat":48.87019,"coating":"Synthétique (hors gazon)","open":false,"type":"Salle multisports"},{"name":"Stade de Clairiere","address":"110 Rue Du Vieil Orme","postal_code":"78517","city":"Rambouillet","department":"Yvelines","long":1.85914,"lat":48.65434,"coating":"Bitume","open":false,"type":"Terrain de basket-ball"},{"name":"Stade Roger Briancon","address":"23 Rue de L'Enfer","postal_code":"77363","city":"Pin","department":"Seine-et-Marne","long":2.6306700000000003,"lat":48.918,"coating":"Bitume","open":false,"type":"Plateau EPS/Multisports/city-stades"},{"name":"Terrain Jean Guillon","address":"68 Quai Du Point Du Jours","postal_code":"92012","city":"Boulogne-Billancourt","department":"Hauts-de-Seine","long":2.25033,"lat":48.82644,"coating":"Synthétique (hors gazon)","open":false,"type":"Terrain de basket-ball"},{"name":"Gymnase","address":"4 Chemin Des Aufrais","postal_code":"91631","city":"Varennes-Jarcy","department":"Essonne","long":2.560952,"lat":48.677009,"coating":"Synthétique (hors gazon)","open":false,"type":"Salle multisports"},{"name":"Lycee Saint Louis","address":"44 Boulevard Saint Michel","postal_code":"75056","city":"Paris","department":"Paris","long":2.34092,"lat":48.84968,"coating":"Bitume","open":false,"type":"Plateau EPS/Multisports/city-stades"},{"name":"Centre Sportif Edouard Pailleron","address":"24 Rue Edouard Pailleron","postal_code":"75056","city":"Paris","department":"Paris","long":2.37721,"lat":48.8807,"coating":"Bitume","open":false,"type":"Terrain de basket-ball"},{"name":"Gymnase Amicale Sportive D'Air France (Asaf)","address":"41974 Route Charles Tillon","postal_code":"94054","city":"Orly","department":"Val-de-Marne","long":2.379283,"lat":48.74727,"coating":"Parquet","open":false,"type":"Salle multisports"},{"name":"Groupe Scolaire La Chanterelle","address":"2 Rue de La Chanterelle","postal_code":"95127","city":"Cergy","department":"Val-d'Oise","long":2.0252,"lat":49.0502,"coating":"Béton","open":false,"type":"Plateau EPS/Multisports/city-stades"},{"name":"Terrain Multisports","address":"42827 Rue Des Roches","postal_code":"77060","city":"Buthiers","department":"Seine-et-Marne","long":2.42851,"lat":48.28738,"coating":"Synthétique (hors gazon)","open":false,"type":"Plateau EPS/Multisports/city-stades"},{"name":"Gymnase Et Plateau D'Evolution Jacques Tassin","address":"1 Rue Du President Doumer","postal_code":"78350","city":"Louveciennes","department":"Yvelines","long":2.12016,"lat":48.86285,"coating":"Synthétique (hors gazon)","open":false,"type":"Salle multisports"},{"name":"Plateau D'Evolution Grimau","address":"134 Rue Marcel Hartmann","postal_code":"94041","city":"Ivry-sur-Seine","department":"Val-de-Marne","long":2.38166,"lat":48.80717,"coating":"Bitume","open":false,"type":"Plateau EPS/Multisports/city-stades"},{"name":"Gymnase Cosec","address":"17 Rue Robert Esnault Pelterie","postal_code":"78620","city":"Toussus-le-Noble","department":"Yvelines","long":2.118098,"lat":48.746208,"coating":"Synthétique (hors gazon)","open":false,"type":"Salle multisports"},{"name":"Ensemble Sportif Joliot Curie","address":"8 Rue Pierre Curie","postal_code":"93070","city":"Saint-Ouen","department":"Seine-Saint-Denis","long":2.34079,"lat":48.9047,"coating":"Bitume","open":false,"type":"Terrain de handball"},{"name":"Gymnase Henry de Caulaincourt","address":"221 Avenue Du Vercors","postal_code":"77285","city":"Mée-sur-Seine","department":"Seine-et-Marne","long":2.634,"lat":48.5407,"coating":"Parquet","open":false,"type":"Salle de gymnastique sportive"},{"name":"Centre Des Bords de Marne","address":"2 Rue de La Prairie","postal_code":"94058","city":"Perreux-sur-Marne","department":"Val-de-Marne","long":2.50995,"lat":48.846877,"coating":"Synthétique (hors gazon)","open":false,"type":"Salle multisports"},{"name":"Centre de Formation Et D'Apprentis Du Batiment","address":"18 Bis Rue Ferdinand Buisson","postal_code":"95219","city":"Ermont","department":"Val-d'Oise","long":2.27181,"lat":48.9787,"coating":"Bitume","open":false,"type":"Plateau EPS/Multisports/city-stades"},{"name":"Square Sainte Helene","address":"43 Rue Letort","postal_code":"75056","city":"Paris","department":"Paris","long":2.3431,"lat":48.8963,"coating":"Bitume","open":false,"type":"Plateau EPS/Multisports/city-stades"},{"name":"Complexe Sportif Nelson Paillou","address":"3 Avenue Jean Jaures","postal_code":"94018","city":"Charenton-le-Pont","department":"Val-de-Marne","long":2.4130000000000003,"lat":48.82303,"coating":"Parquet","open":false,"type":"Salle multisports"},{"name":"College Eugene Chevreul","address":"137 Boulevard Paul Vaillant Couturier","postal_code":"94038","city":"Haÿ-les-Roses","department":"Val-de-Marne","long":2.34126,"lat":48.77564,"coating":"Synthétique (hors gazon)","open":false,"type":"Salle multisports"},{"name":"Ensemble Scolaire Jean-Baptiste de La Salle Notre Dame Compassion","address":"8 Place de La Resistance","postal_code":"93066","city":"Saint-Denis","department":"Seine-Saint-Denis","long":2.3547000000000002,"lat":48.93263,"coating":"Bitume","open":false,"type":"Salle multisports"},{"name":"Gymnase Matheron","address":"1 Rue Pierre Semard","postal_code":"95280","city":"Goussainville","department":"Val-d'Oise","long":2.46005,"lat":49.03577,"coating":"Bitume","open":false,"type":"Salle multisports"},{"name":"Gymnase de L'Ardente","address":"13 Rue de Verdun","postal_code":"78124","city":"Carrières-sur-Seine","department":"Yvelines","long":2.18571,"lat":48.91314,"coating":"Synthétique (hors gazon)","open":false,"type":"Salle multisports"},{"name":"Cosec de L'Universite","address":"99 Avenue Jean-Baptiste Clément","postal_code":"93079","city":"Villetaneuse","department":"Seine-Saint-Denis","long":2.34164,"lat":48.9585,"coating":"Synthétique (hors gazon)","open":false,"type":"Salle multisports"},{"name":"Square Du Serment de Koufra","address":"41 Avenue Ernest Reyer","postal_code":"75056","city":"Paris","department":"Paris","long":2.32437,"lat":48.8214,"coating":"Synthétique (hors gazon)","open":false,"type":"Plateau EPS/Multisports/city-stades"},{"name":"Centre Sportif Elisabeth","address":"7 Avenue Paul Appell","postal_code":"75056","city":"Paris","department":"Paris","long":2.32829,"lat":48.82049,"coating":"Gazon synthétique","open":false,"type":"Plateau EPS/Multisports/city-stades"},{"name":"J'Sports Leonard de Vinci","address":"5 Avenue Leonard de Vinci","postal_code":"92019","city":"Châtenay-Malabry","department":"Hauts-de-Seine","long":2.25099,"lat":48.76588,"coating":"Bitume","open":false,"type":"Plateau EPS/Multisports/city-stades"},{"name":"Gymnase Des Poisonniers","address":"151 Rue Des Poissonniers","postal_code":"75056","city":"Paris","department":"Paris","long":2.352767,"lat":48.896838,"coating":"Béton","open":false,"type":"Salle multisports"},{"name":"Complexe Sportif Maurice Baquet","address":"84 Rue Jean Jacques Rousseau","postal_code":"94076","city":"Villejuif","department":"Val-de-Marne","long":2.36464,"lat":48.79693,"coating":"Gazon synthétique","open":false,"type":"Plateau EPS/Multisports/city-stades"},{"name":"Staps de Creteil","address":"27 Avenue Magellan","postal_code":"94028","city":"Créteil","department":"Val-de-Marne","long":2.45755,"lat":48.76873,"coating":"Synthétique (hors gazon)","open":false,"type":"Salle multisports"},{"name":"College Claude Chappe","address":"9 Rue Des Alouettes","postal_code":"75056","city":"Paris","department":"Paris","long":2.40411,"lat":48.8775,"coating":"Bitume","open":false,"type":"Plateau EPS/Multisports/city-stades"},{"name":"Supelec","address":"42858 Rue Juliot Curie","postal_code":"91272","city":"Gif-sur-Yvette","department":"Essonne","long":2.16188,"lat":48.70756,"coating":"Béton","open":false,"type":"Terrain de basket-ball"},{"name":"Gymnase A. Makarenko","address":"38 Rue Gretillat","postal_code":"94081","city":"Vitry-sur-Seine","department":"Val-de-Marne","long":2.398402,"lat":48.781896,"coating":"Synthétique (hors gazon)","open":false,"type":"Plateau EPS/Multisports/city-stades"},{"name":"Gymnase Des Orteaux","address":"89 Rue Des Orteaux","postal_code":"75056","city":"Paris","department":"Paris","long":2.4075,"lat":48.8558,"coating":"Synthétique (hors gazon)","open":false,"type":"Salle multisports"},{"name":"Centre Sportif Des Raguidelles","address":"27 Rue Tourneroches","postal_code":"92073","city":"Suresnes","department":"Hauts-de-Seine","long":2.217536,"lat":48.864301,"coating":"Synthétique (hors gazon)","open":false,"type":"Salle multisports"},{"name":"Centre Jean Pierre Rives","address":"87-91 Boulevard de Verdun","postal_code":"92026","city":"Courbevoie","department":"Hauts-de-Seine","long":2.25882,"lat":48.90148,"coating":"Synthétique (hors gazon)","open":false,"type":"Salle multisports"},{"name":"Gymnase Des 4 Vents","address":"7 Rue Des 4 Vents","postal_code":"92033","city":"Garches","department":"Hauts-de-Seine","long":2.1923,"lat":48.84992,"coating":"Synthétique (hors gazon)","open":false,"type":"Salle multisports"},{"name":"Stade Municipal","address":"157 Rue Des Pre Aux Moutons","postal_code":"78672","city":"Villennes-sur-Seine","department":"Yvelines","long":1.99071,"lat":48.93517,"coating":"Béton","open":false,"type":"Plateau EPS/Multisports/city-stades"},{"name":"Stade Municipal","address":"44 Chemin Rural","postal_code":"78567","city":"Saint-Martin-la-Garenne","department":"Yvelines","long":1.68042,"lat":49.04021,"coating":"Bitume","open":false,"type":"Plateau EPS/Multisports/city-stades"},{"name":"Gymnase Olivier de Serres","address":"99 Ter Rue Olivier de Serres","postal_code":"75056","city":"Paris","department":"Paris","long":2.29317,"lat":48.8319,"coating":"Synthétique (hors gazon)","open":false,"type":"Salle multisports"},{"name":"Espace Jules Verne","address":"4 Rue Marcellin Berthelot","postal_code":"92062","city":"Puteaux","department":"Hauts-de-Seine","long":2.232323,"lat":48.888105,"coating":"Synthétique (hors gazon)","open":false,"type":"Salle multisports"},{"name":"Complexe Sportif Pierre Pouget","address":"6 Rue de La Sabliere","postal_code":"94001","city":"Ablon-sur-Seine","department":"Val-de-Marne","long":2.42478,"lat":48.72902,"coating":"Parquet","open":false,"type":"Salle multisports"},{"name":"Complexe Sportif Maurice Baquet","address":"76 Avenue Raspail","postal_code":"94037","city":"Gentilly","department":"Val-de-Marne","long":2.34469,"lat":48.81241,"coating":"Synthétique (hors gazon)","open":false,"type":"Salle multisports"},{"name":"Complexe Sportif Intercommunal Mistral","address":"42795 Rue Frederic Mistral","postal_code":"94034","city":"Fresnes","department":"Val-de-Marne","long":2.32733,"lat":48.76158,"coating":"Synthétique (hors gazon)","open":false,"type":"Salle multisports"},{"name":"Pompiers de Versailles","address":"4 Bis Avenue de Paris","postal_code":"78646","city":"Versailles","department":"Yvelines","long":2.13052,"lat":48.8013,"coating":"Synthétique (hors gazon)","open":false,"type":"Salle multisports"},{"name":"Stade Auguste Delaune","address":"52 Rue Du Lieutenant Keiser","postal_code":"95582","city":"Sannois","department":"Val-d'Oise","long":2.25677,"lat":48.97558,"coating":"Béton","open":false,"type":"Plateau EPS/Multisports/city-stades"},{"name":"Societe Sportive D'Education Physique Alsace-Lorraine-Paris","address":"65 Quai D'Artois","postal_code":"94058","city":"Perreux-sur-Marne","department":"Val-de-Marne","long":2.50826,"lat":48.83216,"coating":"Bitume","open":false,"type":"Plateau EPS/Multisports/city-stades"},{"name":"College Madame de Stael","address":"14 Rue de Stael","postal_code":"75056","city":"Paris","department":"Paris","long":2.31032,"lat":48.8435,"coating":"Bitume","open":false,"type":"Plateau EPS/Multisports/city-stades"},{"name":"Gymnase Jean Jaures","address":"280 Avenue Jean Jaures","postal_code":"92019","city":"Châtenay-Malabry","department":"Hauts-de-Seine","long":2.25575,"lat":48.76787,"coating":"Synthétique (hors gazon)","open":false,"type":"Salle multisports"},{"name":"College Evariste Galois","address":"12 Impasse Béatus","postal_code":"93031","city":"Épinay-sur-Seine","department":"Seine-Saint-Denis","long":2.31947,"lat":48.95021,"coating":"Bitume","open":false,"type":"Plateau EPS/Multisports/city-stades"},{"name":"Centre Sportif Des Docteurs Dejerine","address":"34 Rue Des Docteurs Dejerine","postal_code":"75056","city":"Paris","department":"Paris","long":2.41328,"lat":48.856700000000004,"coating":"Bitume","open":false,"type":"Terrain de handball"},{"name":"Complexe Sportif Pierre Denis","address":"111 Avenue Du General de Gaulle","postal_code":"92035","city":"Garenne-Colombes","department":"Hauts-de-Seine","long":2.25672,"lat":48.90742,"coating":"Béton","open":false,"type":"Terrain de basket-ball"},{"name":"Gymnase Franck Leboeuf","address":"1 Rue Beaumarchais","postal_code":"77284","city":"Meaux","department":"Seine-et-Marne","long":2.9149700000000003,"lat":48.9481,"coating":"Béton","open":false,"type":"Plateau EPS/Multisports/city-stades"},{"name":"Tep Perichaux","address":"127 Boulevard Levebvre","postal_code":"75056","city":"Paris","department":"Paris","long":2.298588,"lat":48.829465,"coating":"Bitume","open":false,"type":"Plateau EPS/Multisports/city-stades"},{"name":"Terrains Du Domaine de Brimborion","address":"23 Avenue de La Division Leclerc","postal_code":"92072","city":"Sèvres","department":"Hauts-de-Seine","long":2.22628,"lat":48.8244,"coating":"Béton","open":false,"type":"Plateau EPS/Multisports/city-stades"},{"name":"Parc Des Sports Alfred-Marcel Vincent","address":"43-47 Avenue Du Maréchal Leclerc","postal_code":"93046","city":"Livry-Gargan","department":"Seine-Saint-Denis","long":2.54074,"lat":48.91978,"coating":"Bitume","open":false,"type":"Terrain de basket-ball"},{"name":"Centre Sportif Valeyre","address":"24 Rue de Rochechouart","postal_code":"75056","city":"Paris","department":"Paris","long":2.34572,"lat":48.87757,"coating":"Synthétique (hors gazon)","open":false,"type":"Plateau EPS/Multisports/city-stades"},{"name":"Complexe Sportif Municipal","address":"11 Rue Georges Villette","postal_code":"77316","city":"Orvanne","department":"Seine-et-Marne","long":2.82579,"lat":48.35847,"coating":"Synthétique (hors gazon)","open":false,"type":"Salle multisports"},{"name":"Gymnase Carpentier","address":"230 Rue Du Mesnil","postal_code":"92004","city":"Asnières-sur-Seine","department":"Hauts-de-Seine","long":2.27677,"lat":48.92547,"coating":"Synthétique (hors gazon)","open":false,"type":"Salle multisports"},{"name":"Lycee Auguste Renoir","address":"24 Rue Ganneron","postal_code":"75056","city":"Paris","department":"Paris","long":2.3283,"lat":48.887,"coating":"Parquet","open":false,"type":"Salle multisports"},{"name":"Gymnase Berthelot (École)","address":"8 Rue Marcelin Berthelot","postal_code":"93048","city":"Montreuil","department":"Seine-Saint-Denis","long":2.43813,"lat":48.85618,"coating":"Parquet","open":false,"type":"Salle multisports"},{"name":"Gymnase Pasteur","address":"2 Avenue de La Croix Du Sud","postal_code":"94021","city":"Chevilly-Larue","department":"Val-de-Marne","long":2.34393,"lat":48.77026,"coating":"Bitume","open":false,"type":"Plateau EPS/Multisports/city-stades"},{"name":"Tennis Esso (Exxonmobil)","address":"25 Chemin Rural","postal_code":"92063","city":"Rueil-Malmaison","department":"Hauts-de-Seine","long":2.156569,"lat":48.877139,"coating":"Synthétique (hors gazon)","open":false,"type":"Salle multisports"},{"name":"Centre Sportif Saint Merri","address":"16 Rue Du Renard","postal_code":"75056","city":"Paris","department":"Paris","long":2.35253,"lat":48.85917,"coating":"Synthétique (hors gazon)","open":false,"type":"Salle multisports"},{"name":"Complexe Sportif Jean Dame","address":"9 Rue Andre Lachaud","postal_code":"92063","city":"Rueil-Malmaison","department":"Hauts-de-Seine","long":2.182357,"lat":48.883772,"coating":"Parquet","open":false,"type":"Salle de basket"},{"name":"Gymnase de La Fontaine Au Roi","address":"100 Rue de La Fontaine Au Roi","postal_code":"75056","city":"Paris","department":"Paris","long":2.3785600000000002,"lat":48.86948,"coating":"Synthétique (hors gazon)","open":false,"type":"Salle multisports"},{"name":"Gymnase Chaban Delmas","address":"3 Rue Saint-Lo","postal_code":"92026","city":"Courbevoie","department":"Hauts-de-Seine","long":2.23323,"lat":48.89903,"coating":"Synthétique (hors gazon)","open":false,"type":"Salle multisports"},{"name":"Parc Maurice Audin","address":"2 Allee Romain Rolland","postal_code":"95018","city":"Argenteuil","department":"Val-d'Oise","long":2.23119,"lat":48.95298,"coating":"Synthétique (hors gazon)","open":false,"type":"Plateau EPS/Multisports/city-stades"},{"name":"Gymnase Les Closeaux","address":"12 Petite Voie Des Fontaines","postal_code":"94065","city":"Rungis","department":"Val-de-Marne","long":2.35012,"lat":48.75203,"coating":"Synthétique (hors gazon)","open":false,"type":"Salle multisports"},{"name":"Gymnase Guyard","address":"14 Rue Thomas Edison","postal_code":"94028","city":"Créteil","department":"Val-de-Marne","long":2.4452,"lat":48.79657,"coating":"Synthétique (hors gazon)","open":false,"type":"Salle multisports"},{"name":"Gymnase Jean Fournier","address":"7 Rue Des Potiers","postal_code":"92032","city":"Fontenay-aux-Roses","department":"Hauts-de-Seine","long":2.29475,"lat":48.78643,"coating":"Synthétique (hors gazon)","open":false,"type":"Salle multisports"},{"name":"Centre Sportif Du Fond Des Princes","address":"61 Avenue de La Porte D'Auteuil","postal_code":"75056","city":"Paris","department":"Paris","long":2.24285,"lat":48.84775,"coating":"Synthétique (hors gazon)","open":false,"type":"Salle multisports"},{"name":"Gymnase Du Piple","address":"152 Bis Rue de Boissy","postal_code":"94071","city":"Sucy-en-Brie","department":"Val-de-Marne","long":2.52598,"lat":48.75997,"coating":"Synthétique (hors gazon)","open":false,"type":"Salle multisports"},{"name":"Cosec Leo Lagrange","address":"56 Rue Etienne Dolet","postal_code":"94002","city":"Alfortville","department":"Val-de-Marne","long":2.424951,"lat":48.794367,"coating":"Parquet","open":false,"type":"Salle multisports"},{"name":"Centre Sportif Des Fillettes","address":"54 Boulevard Ney","postal_code":"75056","city":"Paris","department":"Paris","long":2.3633100000000002,"lat":48.8986,"coating":"Bitume","open":false,"type":"Terrain de basket-ball"},{"name":"Lycee Jean Jacques Rousseau","address":"2 Rue Jean Jacques Rousseau","postal_code":"95585","city":"Sarcelles","department":"Val-d'Oise","long":2.38615,"lat":48.99495,"coating":"Bitume","open":false,"type":"Plateau EPS/Multisports/city-stades"},{"name":"College Saint Joseph","address":"12 Rue Du 8 Mai 45","postal_code":"93055","city":"Pantin","department":"Seine-Saint-Denis","long":2.41379,"lat":48.89148,"coating":"Béton","open":false,"type":"Salle multisports"},{"name":"Square Helene","address":"12 Rue Helene","postal_code":"75056","city":"Paris","department":"Paris","long":2.32463,"lat":48.8864,"coating":"Béton","open":false,"type":"Plateau EPS/Multisports/city-stades"},{"name":"Centre Sports Et Loisirs de La Banque de France","address":"57 Ile de La Loge","postal_code":"78350","city":"Louveciennes","department":"Yvelines","long":2.11849,"lat":48.87802,"coating":"Béton","open":false,"type":"Terrain de basket-ball"},{"name":"Complexe Sportif de Plein Air Du Parc de La Martiniere","address":"87 Rue Du General de Gaulle","postal_code":"78638","city":"Vaux-sur-Seine","department":"Yvelines","long":1.9678900000000001,"lat":49.00261,"coating":"Bitume","open":false,"type":"Terrain de basket-ball"},{"name":"Stade Jean Moulin","address":"23 Boulevard Gambetta","postal_code":"95370","city":"Marines","department":"Val-d'Oise","long":1.97272,"lat":49.14624,"coating":"Bitume","open":false,"type":"Plateau EPS/Multisports/city-stades"},{"name":"Stade Des Minimes","address":"64 Avenue Des Minimes","postal_code":"94067","city":"Saint-Mandé","department":"Val-de-Marne","long":2.42651,"lat":48.84196,"coating":"Synthétique (hors gazon)","open":false,"type":"Plateau EPS/Multisports/city-stades"},{"name":"Gymnase Des Ormes","address":"51-55 Allee Des Ormes","postal_code":"94058","city":"Perreux-sur-Marne","department":"Val-de-Marne","long":2.512976,"lat":48.830863,"coating":"Synthétique (hors gazon)","open":false,"type":"Salle multisports"},{"name":"College Denecourt","address":"670 Chemin de Barbeau","postal_code":"77037","city":"Bois-le-Roi","department":"Seine-et-Marne","long":2.7024600000000003,"lat":48.47533,"coating":"Bitume","open":false,"type":"Plateau EPS/Multisports/city-stades"},{"name":"Complexe Sportif Paul Langevin","address":"42888 Allee Morelly","postal_code":"92050","city":"Nanterre","department":"Hauts-de-Seine","long":2.184473,"lat":48.889126,"coating":"Synthétique (hors gazon)","open":false,"type":"Salle multisports"},{"name":"City Park Municipal de La Porte Jaune","address":"38 Bis Rue de La Porte Jaune","postal_code":"92064","city":"Saint-Cloud","department":"Hauts-de-Seine","long":2.19831,"lat":48.845399,"coating":"Synthétique (hors gazon)","open":false,"type":"Plateau EPS/Multisports/city-stades"},{"name":"Complexe Sportif Salvador Allende","address":"8 Avenue Charles Garcia","postal_code":"94033","city":"Fontenay-sous-Bois","department":"Val-de-Marne","long":2.482563,"lat":48.855001,"coating":"Synthétique (hors gazon)","open":false,"type":"Salle multisports"},{"name":"Maison D'Arret","address":"7 Avenue Des Peupliers","postal_code":"91235","city":"Fleury-Mérogis","department":"Essonne","long":2.368831,"lat":48.639315,"coating":"Synthétique (hors gazon)","open":false,"type":"Salle multisports"},{"name":"Stade Suchet","address":"26 Avenue Du Marechal Franchet D'Esperey","postal_code":"75056","city":"Paris","department":"Paris","long":2.26211,"lat":48.8542,"coating":"Bitume","open":false,"type":"Plateau EPS/Multisports/city-stades"},{"name":"City Stade Rue Paul Hochart","address":"111 Rue Paul Hochart","postal_code":"94038","city":"Haÿ-les-Roses","department":"Val-de-Marne","long":2.36279,"lat":48.77821,"coating":"Synthétique (hors gazon)","open":false,"type":"Plateau EPS/Multisports/city-stades"},{"name":"Square Heloise Et Abelard","address":"22 Rue Pierre Gourdault","postal_code":"75056","city":"Paris","department":"Paris","long":2.36998,"lat":48.831,"coating":"Bitume","open":false,"type":"Plateau EPS/Multisports/city-stades"},{"name":"Gymnase H. Wallon","address":"89 Rue Louise Aglae Crette","postal_code":"94081","city":"Vitry-sur-Seine","department":"Val-de-Marne","long":2.393668,"lat":48.798101,"coating":"Parquet","open":false,"type":"Salle multisports"},{"name":"College Georges Braque","address":"95 Rue Brillat Savarin","postal_code":"75056","city":"Paris","department":"Paris","long":2.34229,"lat":48.82473,"coating":"Synthétique (hors gazon)","open":false,"type":"Plateau EPS/Multisports/city-stades"},{"name":"Espace Sportif de Plein Air","address":"54 Bis Rue de La Picardie","postal_code":"77521","city":"Villiers-sur-Morin","department":"Seine-et-Marne","long":2.8734,"lat":48.8547,"coating":"Bitume","open":false,"type":"Plateau EPS/Multisports/city-stades"},{"name":"Tep Castagnary","address":"115 Rue Castagnary","postal_code":"75056","city":"Paris","department":"Paris","long":2.30477,"lat":48.82972,"coating":"Bitume","open":false,"type":"Plateau EPS/Multisports/city-stades"},{"name":"Square de La Zac Didot","address":"1 Place de La Garenne","postal_code":"75056","city":"Paris","department":"Paris","long":2.31966,"lat":48.83421,"coating":"Bitume","open":false,"type":"Plateau EPS/Multisports/city-stades"},{"name":"Centre D'Animation Clavel","address":"26 Rue Clavel","postal_code":"75056","city":"Paris","department":"Paris","long":2.38669,"lat":48.8764,"coating":"Bitume","open":false,"type":"Plateau EPS/Multisports/city-stades"},{"name":"Terrain Decathlon","address":"18 Rue Leon Blum","postal_code":"91103","city":"Brétigny-sur-Orge","department":"Essonne","long":2.30021,"lat":48.6219,"coating":"Béton","open":false,"type":"Terrain de basket-ball"},{"name":"Caserne Kellermann","address":"56-82 Boulevard Kellermann","postal_code":"75056","city":"Paris","department":"Paris","long":2.34836,"lat":48.82065,"coating":"Parquet","open":false,"type":"Salle multisports"},{"name":"Gymnase Montconseil","address":"76 Boulevard Henri Dunand","postal_code":"91174","city":"Corbeil-Essonnes","department":"Essonne","long":2.479285,"lat":48.598429,"coating":"Béton","open":false,"type":"Plateau EPS/Multisports/city-stades"},{"name":"Espace Guy Drut","address":"13 Rue Boris Pasternak","postal_code":"77169","city":"Émerainville","department":"Seine-et-Marne","long":2.59488,"lat":48.8298,"coating":"Synthétique (hors gazon)","open":false,"type":"Salle multisports"},{"name":"Complexe Henri Barbusse","address":"111 Rue Henri Barbusse","postal_code":"93014","city":"Clichy-sous-Bois","department":"Seine-Saint-Denis","long":2.55173,"lat":48.90717,"coating":"Bitume","open":false,"type":"Plateau EPS/Multisports/city-stades"},{"name":"Centre Sportif Emile Anthoine","address":"9 Rue Jean Rey","postal_code":"75056","city":"Paris","department":"Paris","long":2.29069,"lat":48.8564,"coating":"Synthétique (hors gazon)","open":false,"type":"Terrain de basket-ball"},{"name":"Plateau D'Evolution Emile Rousseau","address":"44 Avenue Jean Jaures","postal_code":"78322","city":"Jouy-en-Josas","department":"Yvelines","long":2.16365,"lat":48.76547,"coating":"Bitume","open":false,"type":"Terrain de basket-ball"},{"name":"Plaine de Jeux Quartier Des Arcades Fleuries","address":"4 Allée Franche Comté","postal_code":"77108","city":"Chelles","department":"Seine-et-Marne","long":2.618717,"lat":48.881074,"coating":"Bitume","open":false,"type":"Terrain de basket-ball"},{"name":"Stade Gabriel Thibault","address":"42981 Rue Severine","postal_code":"94076","city":"Villejuif","department":"Val-de-Marne","long":2.36773,"lat":48.80343,"coating":"Gazon synthétique","open":false,"type":"Plateau EPS/Multisports/city-stades"},{"name":"Complexe Henri Marcille","address":"3 Rue de Charles de Gaulle","postal_code":"91086","city":"Bondoufle","department":"Essonne","long":2.38719,"lat":48.61616,"coating":"Béton","open":false,"type":"Terrain de basket-ball"},{"name":"College Louise Michel","address":"21 Chemin Des Mozards","postal_code":"91174","city":"Corbeil-Essonnes","department":"Essonne","long":2.479121,"lat":48.592201,"coating":"Bitume","open":false,"type":"Plateau EPS/Multisports/city-stades"},{"name":"College Antoine de Saint Exupery","address":"22 Avenue de La Republique","postal_code":"94034","city":"Fresnes","department":"Val-de-Marne","long":2.32084,"lat":48.75784,"coating":"Synthétique (hors gazon)","open":false,"type":"Salle multisports"},{"name":"Gymnase Robert Schuman","address":"60 Avenue Du Marechal de Lattre de Tassigny","postal_code":"94073","city":"Thiais","department":"Val-de-Marne","long":2.403824,"lat":48.756576,"coating":"Synthétique (hors gazon)","open":false,"type":"Salle multisports"},{"name":"Lycee Polyvalent Monge","address":"1 Place Monge","postal_code":"91589","city":"Savigny-sur-Orge","department":"Essonne","long":2.35889,"lat":48.6759,"coating":"Synthétique (hors gazon)","open":false,"type":"Salle multisports"},{"name":"Palais Des Sports","address":"42890 Boulevard Des Freres Voisins","postal_code":"92040","city":"Issy-les-Moulineaux","department":"Hauts-de-Seine","long":2.26852,"lat":48.826866,"coating":"Parquet","open":false,"type":"Salle multisports"},{"name":"Gymnase Jean Mace","address":"53-55 Avenue Aristide Briand","postal_code":"93057","city":"Pavillons-sous-Bois","department":"Seine-Saint-Denis","long":2.4988200000000003,"lat":48.90913,"coating":"Béton","open":false,"type":"Salle multisports"},{"name":"Stade Municipal Jean Longuet","address":"254 Avenue de La Division Leclerc","postal_code":"92019","city":"Châtenay-Malabry","department":"Hauts-de-Seine","long":2.2679,"lat":48.76641,"coating":"Synthétique (hors gazon)","open":false,"type":"Salle multisports"},{"name":"Ecole Raymond Queneau","address":"57 Avenue Henri Giroux","postal_code":"92049","city":"Montrouge","department":"Hauts-de-Seine","long":2.323543,"lat":48.8173,"coating":"Synthétique (hors gazon)","open":false,"type":"Terrain de basket-ball"},{"name":"Centre Sportif Cler","address":"6 Rue Cler","postal_code":"75056","city":"Paris","department":"Paris","long":2.30552,"lat":48.85872,"coating":"Parquet","open":false,"type":"Salle multisports"},{"name":"Centre Sportif Allende - Neruda","address":"4 Allee Jules Ferry","postal_code":"95268","city":"Garges-lès-Gonesse","department":"Val-d'Oise","long":2.39451,"lat":48.9754,"coating":"Synthétique (hors gazon)","open":false,"type":"Salle multisports"},{"name":"Stade Isambert","address":"37 Rue Emile Deschanel","postal_code":"92026","city":"Courbevoie","department":"Hauts-de-Seine","long":2.24208,"lat":48.90095,"coating":"Bitume","open":false,"type":"Terrain de basket-ball"},{"name":"Complexe Sportif Catherine de Vivonne","address":"120 Rue de Clairefontaine","postal_code":"78517","city":"Rambouillet","department":"Yvelines","long":1.8469,"lat":48.64844,"coating":"Synthétique (hors gazon)","open":false,"type":"Salle multisports"},{"name":"Groupe Scolaire Departemental Adolphe Cherioux","address":"195 Rue Julian Grimau","postal_code":"94081","city":"Vitry-sur-Seine","department":"Val-de-Marne","long":2.370359,"lat":48.779106,"coating":"Synthétique (hors gazon)","open":false,"type":"Salle multisports"},{"name":"Gymnase Marcel Cachin","address":"39 Rue Sebastopol","postal_code":"94022","city":"Choisy-le-Roi","department":"Val-de-Marne","long":2.405014,"lat":48.770468,"coating":"Parquet","open":false,"type":"Salle multisports"},{"name":"City Stade","address":"24-26 Rue Du 8 Martin","postal_code":"77464","city":"Thorigny-sur-Marne","department":"Seine-et-Marne","long":2.70768,"lat":48.89326,"coating":"Gazon synthétique","open":false,"type":"Plateau EPS/Multisports/city-stades"},{"name":"Mjc Les Hauts de Belleville","address":"43 Rue Borrego","postal_code":"75056","city":"Paris","department":"Paris","long":2.41175,"lat":48.8732,"coating":"Parquet","open":false,"type":"Salle multisports"},{"name":"Groupe Scolaire Notre Dame de France","address":"3 Avenue Arblade","postal_code":"92046","city":"Malakoff","department":"Hauts-de-Seine","long":2.293464,"lat":48.818208,"coating":"Bitume","open":false,"type":"Plateau EPS/Multisports/city-stades"},{"name":"Ecole Elementaire Alphonse Daudet","address":"11 Rue Des Ecoles","postal_code":"91207","city":"Égly","department":"Essonne","long":2.2229900000000002,"lat":48.57869,"coating":"Bitume","open":false,"type":"Plateau EPS/Multisports/city-stades"},{"name":"Caserne de La Gendarmerie","address":"2 Avenue de La Paix","postal_code":"92040","city":"Issy-les-Moulineaux","department":"Hauts-de-Seine","long":2.26743,"lat":48.8191,"coating":"Synthétique (hors gazon)","open":false,"type":"Salle multisports"},{"name":"Terrain de Proximite de La Lutea","address":"14 Avenue Louis Pasteur","postal_code":"92007","city":"Bagneux","department":"Hauts-de-Seine","long":2.31859,"lat":48.79873,"coating":"Bitume","open":false,"type":"Plateau EPS/Multisports/city-stades"},{"name":"Gymnase Victor Hugo","address":"2 Rue Pierre Curie","postal_code":"94016","city":"Cachan","department":"Val-de-Marne","long":2.32307,"lat":48.789,"coating":"Béton","open":false,"type":"Plateau EPS/Multisports/city-stades"},{"name":"Halle Rabelais","address":"5 Rue Pierre Et Marie Curie","postal_code":"94081","city":"Vitry-sur-Seine","department":"Val-de-Marne","long":2.392906,"lat":48.780053,"coating":"Synthétique (hors gazon)","open":false,"type":"Salle multisports"},{"name":"Centre Omnisports R. Wagner","address":"17 Avenue Robert Wagner","postal_code":"78640","city":"Vélizy-Villacoublay","department":"Yvelines","long":2.1782,"lat":48.78377,"coating":"Parquet","open":false,"type":"Salle multisports"},{"name":"Jardin Lionel Assouad","address":"22 Rue de Chatillon","postal_code":"75056","city":"Paris","department":"Paris","long":2.32215,"lat":48.82799,"coating":"Synthétique (hors gazon)","open":false,"type":"Plateau EPS/Multisports/city-stades"},{"name":"Gymnase Joliot Curie","address":"59 Rue de Verdun","postal_code":"92007","city":"Bagneux","department":"Hauts-de-Seine","long":2.31619,"lat":48.80218,"coating":"Synthétique (hors gazon)","open":false,"type":"Salle multisports"},{"name":"Ecole Alsacienne","address":"109 Rue de Notre Dame Des Champs","postal_code":"75056","city":"Paris","department":"Paris","long":2.3343,"lat":48.84125,"coating":"Synthétique (hors gazon)","open":false,"type":"Salle multisports"},{"name":"Gymnase Bercy A.S.P.T.T","address":"242 Rue de Bercy","postal_code":"75056","city":"Paris","department":"Paris","long":2.36879,"lat":48.84733,"coating":"Parquet","open":false,"type":"Salle multisports"},{"name":"Gymnase Danton","address":"12 Allée Danton","postal_code":"93046","city":"Livry-Gargan","department":"Seine-Saint-Denis","long":2.5179,"lat":48.91385,"coating":"Synthétique (hors gazon)","open":false,"type":"Salle multisports"},{"name":"Parc Municipal Des Sports","address":"2 Rue Du Stade","postal_code":"94021","city":"Chevilly-Larue","department":"Val-de-Marne","long":2.33747,"lat":48.76198,"coating":"Synthétique (hors gazon)","open":false,"type":"Salle multisports"},{"name":"Lycee Charles Vaillant","address":"100 Avenue Charles Vaillant","postal_code":"95019","city":"Arnouville","department":"Val-d'Oise","long":2.40761,"lat":48.9861,"coating":"Synthétique (hors gazon)","open":false,"type":"Salle multisports"},{"name":"Alsace de Bagnolet","address":"5 Rue Des Loriettes","postal_code":"93006","city":"Bagnolet","department":"Seine-Saint-Denis","long":2.41835,"lat":48.87112,"coating":"Bitume","open":false,"type":"Terrain de basket-ball"},{"name":"Gymnase Henri Wallon","address":"5 Rue Henri Wallon","postal_code":"93048","city":"Montreuil","department":"Seine-Saint-Denis","long":2.45777,"lat":48.85607,"coating":"Synthétique (hors gazon)","open":false,"type":"Salle multisports"},{"name":"Gymnase Les Guiblets","address":"86 Boulevard John Fitzgerald Kennedy","postal_code":"94028","city":"Créteil","department":"Val-de-Marne","long":2.46212,"lat":48.78047,"coating":"Bitume","open":false,"type":"Plateau EPS/Multisports/city-stades"},{"name":"Ecole J. Dacan A-B","address":"42949 Jacques Decour","postal_code":"92050","city":"Nanterre","department":"Hauts-de-Seine","long":2.225907,"lat":48.887715,"coating":"Bitume","open":false,"type":"Terrain de basket-ball"},{"name":"Espace de Jeux Multisports Ferry","address":"28 Rue Jules Ferry","postal_code":"94058","city":"Perreux-sur-Marne","department":"Val-de-Marne","long":2.501867,"lat":48.852742,"coating":"Bitume","open":false,"type":"Plateau EPS/Multisports/city-stades"},{"name":"Lycee Descartes","address":"17 Avenue Lavoisier","postal_code":"92002","city":"Antony","department":"Hauts-de-Seine","long":2.3123,"lat":48.7493,"coating":"Bitume","open":false,"type":"Plateau EPS/Multisports/city-stades"},{"name":"Gymnase Du Pre Gentil","address":"50 Rue Henri Mondor","postal_code":"93064","city":"Rosny-sous-Bois","department":"Seine-Saint-Denis","long":2.49727,"lat":48.86814,"coating":"Parquet","open":false,"type":"Salle multisports"},{"name":"Complexe Sportif de La Source","address":"1 Boulevard Rodin","postal_code":"92040","city":"Issy-les-Moulineaux","department":"Hauts-de-Seine","long":2.26376,"lat":48.82034,"coating":"Parquet","open":false,"type":"Salle multisports"},{"name":"Espace Basket de Proximite (Panier Isole)","address":"269 Avenue Du General de Gaulle","postal_code":"94058","city":"Perreux-sur-Marne","department":"Val-de-Marne","long":2.494506,"lat":48.851568,"coating":"Bitume","open":false,"type":"Plateau EPS/Multisports/city-stades"},{"name":"College Prive Saint Spire","address":"71 Rue de La Quarantaine","postal_code":"91174","city":"Corbeil-Essonnes","department":"Essonne","long":2.48512,"lat":48.6106,"coating":"Bitume","open":false,"type":"Plateau EPS/Multisports/city-stades"},{"name":"Gymnase Lemaire","address":"23 Rue Du Four Goudon","postal_code":"95205","city":"Écouen","department":"Val-d'Oise","long":2.38089,"lat":49.0235,"coating":"Synthétique (hors gazon)","open":false,"type":"Salle multisports"},{"name":"Installation Sportive Et Recreative Du Pre de La Grenadiere","address":"1 Rue Saint Martin","postal_code":"78484","city":"Perdreauville","department":"Yvelines","long":1.62648,"lat":48.96687,"coating":"Bitume","open":false,"type":"Terrain de basket-ball"},{"name":"L'Agora","address":"18 Rue Aristide Briand","postal_code":"92040","city":"Issy-les-Moulineaux","department":"Hauts-de-Seine","long":2.25463,"lat":48.82108,"coating":"Synthétique (hors gazon)","open":false,"type":"Salle multisports"},{"name":"Tennis Club de Paris","address":"15 Avenue Felix D'Herelle","postal_code":"75056","city":"Paris","department":"Paris","long":2.2576,"lat":48.83529,"coating":"Synthétique (hors gazon)","open":false,"type":"Plateau EPS/Multisports/city-stades"},{"name":"Gymnase Voltaire","address":"2 Rue Des Garonnes","postal_code":"95582","city":"Sannois","department":"Val-d'Oise","long":2.2579700000000003,"lat":48.975,"coating":"Synthétique (hors gazon)","open":false,"type":"Salle multisports"},{"name":"Gymnase Roquepine","address":"18 Rue Roquepine","postal_code":"75056","city":"Paris","department":"Paris","long":2.31875,"lat":48.87254,"coating":"Synthétique (hors gazon)","open":false,"type":"Salles polyvalentes / des fêtes / non spécialisées"},{"name":"Château Du Haut Buc","address":"20 Rue Louis Massotte","postal_code":"78117","city":"Buc","department":"Yvelines","long":2.12273,"lat":48.76996,"coating":"Bitume","open":false,"type":"Plateau EPS/Multisports/city-stades"},{"name":"Gymnase La Plaine","address":"15 Rue Francois Rude","postal_code":"94016","city":"Cachan","department":"Val-de-Marne","long":2.3334,"lat":48.78631,"coating":"Gazon synthétique","open":false,"type":"Plateau EPS/Multisports/city-stades"},{"name":"Esplanade Kennedy","address":"44 Rue Du Muguet","postal_code":"78517","city":"Rambouillet","department":"Yvelines","long":1.84306,"lat":48.64765,"coating":"Bitume","open":false,"type":"Terrain de basket-ball"},{"name":"Gymnase Condorcet","address":"52 Rue Du Condorcet","postal_code":"92023","city":"Clamart","department":"Hauts-de-Seine","long":2.2646,"lat":48.81135,"coating":"Bitume","open":false,"type":"Terrain de basket-ball"},{"name":"Terrain Multisports","address":"8 Ruedu Manoir","postal_code":"95212","city":"Épiais-lès-Louvres","department":"Val-d'Oise","long":2.557617,"lat":49.031135,"coating":"Gazon synthétique","open":false,"type":"Plateau EPS/Multisports/city-stades"},{"name":"College \u0026 Lycee Jean Jaures","address":"1 Rue Dombasle","postal_code":"93048","city":"Montreuil","department":"Seine-Saint-Denis","long":2.44812,"lat":48.8643,"coating":"Parquet","open":false,"type":"Salle multisports"},{"name":"Complexe Sportif Romain Rolland","address":"194 Rue de Suresnes","postal_code":"92050","city":"Nanterre","department":"Hauts-de-Seine","long":2.217832,"lat":48.881287,"coating":"Parquet","open":false,"type":"Salle multisports"},{"name":"Centre Sportif Davout","address":"134 Boulevard Davout","postal_code":"75056","city":"Paris","department":"Paris","long":2.40954,"lat":48.8615,"coating":"Bitume","open":false,"type":"Plateau EPS/Multisports/city-stades"},{"name":"Gymnase Anatole France","address":"2 Boulevard Abel Cornaton","postal_code":"91021","city":"Arpajon","department":"Essonne","long":2.24738,"lat":48.58601,"coating":"Synthétique (hors gazon)","open":false,"type":"Salle multisports"},{"name":"Lycée Saint Jean de Passy","address":"72 Rue Raynouard","postal_code":"75056","city":"Paris","department":"Paris","long":2.27849,"lat":48.85427,"coating":"Synthétique (hors gazon)","open":false,"type":"Salle multisports"},{"name":"Stade Armand Fey","address":"24-26 Route Du Plessis Trevise","postal_code":"94019","city":"Chennevières-sur-Marne","department":"Val-de-Marne","long":2.555796,"lat":48.80569,"coating":"Synthétique (hors gazon)","open":false,"type":"Salle multisports"},{"name":"Complexe Sportif Jean Jaures","address":"30 Rue Jean Jacques Rousseau","postal_code":"95018","city":"Argenteuil","department":"Val-d'Oise","long":2.225,"lat":48.93731,"coating":"Parquet","open":false,"type":"Salle multisports"},{"name":"Stade Des Malassis","address":"13 Rue Descartes","postal_code":"93006","city":"Bagnolet","department":"Seine-Saint-Denis","long":2.42489,"lat":48.86951,"coating":"Synthétique (hors gazon)","open":false,"type":"Plateau EPS/Multisports/city-stades"},{"name":"Gymnase Mahieu","address":"72 Avenue Mahieu","postal_code":"94068","city":"Saint-Maur-des-Fossés","department":"Val-de-Marne","long":2.4783,"lat":48.809237,"coating":"Bitume","open":false,"type":"Terrain de basket-ball"},{"name":"Hautes Mardelles","address":"157 Route de Brie","postal_code":"91114","city":"Brunoy","department":"Essonne","long":2.52442,"lat":48.7075,"coating":"Synthétique (hors gazon)","open":false,"type":"Plateau EPS/Multisports/city-stades"},{"name":"Stade Aurélien Bazin","address":"1 Impasse Du Haut de L'Ile","postal_code":"78057","city":"Bennecourt","department":"Yvelines","long":1.57321,"lat":49.03817,"coating":"Béton","open":false,"type":"Plateau EPS/Multisports/city-stades"},{"name":"Gymnase Saint Exupery","address":"9 Rue de Lorraine","postal_code":"94046","city":"Maisons-Alfort","department":"Val-de-Marne","long":2.434002,"lat":48.813878,"coating":"Synthétique (hors gazon)","open":false,"type":"Plateau EPS/Multisports/city-stades"},{"name":"Asiem Bon Conseil","address":"6 Rue Albert de Lapparent","postal_code":"75056","city":"Paris","department":"Paris","long":2.308074,"lat":48.848291,"coating":"Synthétique (hors gazon)","open":false,"type":"Salle multisports"},{"name":"Terrain de Proximite 4","address":"39-41 Rue Charles Tillon","postal_code":"93001","city":"Aubervilliers","department":"Seine-Saint-Denis","long":2.3931243,"lat":48.9177905,"coating":"Synthétique (hors gazon)","open":false,"type":"Plateau EPS/Multisports/city-stades"},{"name":"Ecole Eugene Napoleon","address":"254 Rue Du Faubourg Saint Antoine","postal_code":"75056","city":"Paris","department":"Paris","long":2.3908,"lat":48.84816,"coating":"Bitume","open":false,"type":"Terrain de basket-ball"},{"name":"Gymnase Du Parc","address":"7 Rue Le Notre","postal_code":"95572","city":"Saint-Ouen-l'Aumône","department":"Val-d'Oise","long":2.10995,"lat":49.0414,"coating":"Parquet","open":false,"type":"Salle multisports"},{"name":"Espace Casterano","address":"9 Rue Du Pont de L'Arcade","postal_code":"77339","city":"Noisy-sur-École","department":"Seine-et-Marne","long":2.49554,"lat":48.3742,"coating":"Bitume","open":false,"type":"Plateau EPS/Multisports/city-stades"},{"name":"College Jules Verne","address":"6 Avenue Georges Pompidou","postal_code":"91661","city":"Villebon-sur-Yvette","department":"Essonne","long":2.230209,"lat":48.700597,"coating":"Bitume","open":false,"type":"Plateau EPS/Multisports/city-stades"},{"name":"Lycee Professionnel Ferdinand Buisson","address":"245 Rue Ferdinand Buisson","postal_code":"95219","city":"Ermont","department":"Val-d'Oise","long":2.27273,"lat":48.9786,"coating":"Parquet","open":false,"type":"Salle multisports"},{"name":"Terrain de Basket","address":"4 Avenue de La Gare","postal_code":"77208","city":"Gouaix","department":"Seine-et-Marne","long":3.29237,"lat":48.48185,"coating":"Béton","open":false,"type":"Terrain de basket-ball"},{"name":"Gymnase Jean Guinier","address":"33 Boulevard Jean-Jacques Rousseau","postal_code":"92036","city":"Gennevilliers","department":"Hauts-de-Seine","long":2.28586,"lat":48.9338,"coating":"Bitume","open":false,"type":"Plateau EPS/Multisports/city-stades"},{"name":"Gymnase Claude Saluden (Des Cahouetes)","address":"10 Rue Paul Letombe","postal_code":"93049","city":"Neuilly-Plaisance","department":"Seine-Saint-Denis","long":2.51195,"lat":48.86393,"coating":"Bitume","open":false,"type":"Plateau EPS/Multisports/city-stades"},{"name":"Gymnase Du Plateau","address":"52 Route de La Queue En Brie","postal_code":"94071","city":"Sucy-en-Brie","department":"Val-de-Marne","long":2.53537,"lat":48.76242,"coating":"Synthétique (hors gazon)","open":false,"type":"Salles polyvalentes / des fêtes / non spécialisées"},{"name":"Terrains de Proximite Bld Jules Valles","address":"1 Boulevard Jules Valles","postal_code":"91174","city":"Corbeil-Essonnes","department":"Essonne","long":2.46135,"lat":48.6032,"coating":"Bitume","open":false,"type":"Plateau EPS/Multisports/city-stades"},{"name":"Stade Municipal","address":"12 Rue de Sevres","postal_code":"92077","city":"Ville-d'Avray","department":"Hauts-de-Seine","long":2.18972,"lat":48.82448,"coating":"Synthétique (hors gazon)","open":false,"type":"Plateau EPS/Multisports/city-stades"},{"name":"Gymnase Henri Michel","address":"9 Avenue de La Division Leclerc","postal_code":"95052","city":"Beaumont-sur-Oise","department":"Val-d'Oise","long":2.28377,"lat":49.1386,"coating":"Synthétique (hors gazon)","open":false,"type":"Salle multisports"},{"name":"College Lycee Georges Leven","address":"30 Boulevard Carnot","postal_code":"75056","city":"Paris","department":"Paris","long":2.41288,"lat":48.84239,"coating":"Synthétique (hors gazon)","open":false,"type":"Salle multisports"},{"name":"Gymnase Henri Wallon","address":"30 Rue Anatole France","postal_code":"93055","city":"Pantin","department":"Seine-Saint-Denis","long":2.42393,"lat":48.89329,"coating":"Synthétique (hors gazon)","open":false,"type":"Salle multisports"},{"name":"Gymnase Delaune","address":"2 Rue de Nanteuil","postal_code":"93048","city":"Montreuil","department":"Seine-Saint-Denis","long":2.46277,"lat":48.87357,"coating":"Parquet","open":false,"type":"Salle multisports"},{"name":"Plateau D'Evolution","address":"3 Rue Des Fraiches Femmes","postal_code":"95523","city":"Roche-Guyon","department":"Val-d'Oise","long":1.63436,"lat":49.082,"coating":"Bitume","open":false,"type":"Plateau EPS/Multisports/city-stades"},{"name":"Parc Du Seminaire de Conflans","address":"5 Rue de L'Archeveche","postal_code":"94018","city":"Charenton-le-Pont","department":"Val-de-Marne","long":2.40589,"lat":48.82176,"coating":"Bitume","open":false,"type":"Terrain de basket-ball"},{"name":"Gymnase Romain Rolland","address":"1 Rue Romain Rolland","postal_code":"94011","city":"Bonneuil-sur-Marne","department":"Val-de-Marne","long":2.477818,"lat":48.769185,"coating":"Parquet","open":false,"type":"Salle multisports"},{"name":"Terrain de Proximite Rue de Paris","address":"140 Rue de Paris","postal_code":"93053","city":"Noisy-le-Sec","department":"Seine-Saint-Denis","long":2.46382,"lat":48.90186,"coating":"Gazon synthétique","open":false,"type":"Plateau EPS/Multisports/city-stades"},{"name":"Complexe Sportif Du Lac","address":"1 Avenue Pierre Beregovoy","postal_code":"91182","city":"Courcouronnes","department":"Essonne","long":2.41813,"lat":48.61493,"coating":"Gazon synthétique","open":false,"type":"Plateau EPS/Multisports/city-stades"},{"name":"Gymnase Lucien Leroy","address":"3 Bis Rue Pierre Et Angele Le Hen","postal_code":"94044","city":"Limeil-Brévannes","department":"Val-de-Marne","long":2.487483,"lat":48.753183,"coating":"Synthétique (hors gazon)","open":false,"type":"Salle multisports"},{"name":"Gymnase Des Rabats","address":"173 Rue Des Rabats","postal_code":"92002","city":"Antony","department":"Hauts-de-Seine","long":2.30595,"lat":48.73913,"coating":"Synthétique (hors gazon)","open":false,"type":"Salle multisports"},{"name":"Halle Des Sports","address":"81 Avenue de Versailles","postal_code":"94073","city":"Thiais","department":"Val-de-Marne","long":2.400755,"lat":48.759286,"coating":"Synthétique (hors gazon)","open":false,"type":"Salle multisports"},{"name":"Gymnase Leo Lagrange","address":"10 Rue Honoré","postal_code":"93055","city":"Pantin","department":"Seine-Saint-Denis","long":2.39479,"lat":48.90306,"coating":"Synthétique (hors gazon)","open":false,"type":"Salle multisports"},{"name":"Stade Municipal","address":"3 Rue Du Long Des Bois","postal_code":"78576","city":"Saint-Rémy-l'Honoré","department":"Yvelines","long":1.8802,"lat":48.75258,"coating":"Bitume","open":false,"type":"Terrain de basket-ball"},{"name":"Complexe Sportif Jean Guimier","address":"31 Avenue Boileau","postal_code":"94017","city":"Champigny-sur-Marne","department":"Val-de-Marne","long":2.545791,"lat":48.804409,"coating":"Synthétique (hors gazon)","open":false,"type":"Salle multisports"},{"name":"Gymnase Des Blagis","address":"42890 Rue Leo Delides","postal_code":"92071","city":"Sceaux","department":"Hauts-de-Seine","long":2.30673,"lat":48.782,"coating":"Synthétique (hors gazon)","open":false,"type":"Salle multisports"},{"name":"Gymnase Leo Lagrange","address":"10 Rue Des Aubepines","postal_code":"92050","city":"Nanterre","department":"Hauts-de-Seine","long":2.220649,"lat":48.910725,"coating":"Synthétique (hors gazon)","open":false,"type":"Salle multisports"},{"name":"Gymnase Pierre Denize","address":"19 Rue de Verdun","postal_code":"91045","city":"Ballancourt-sur-Essonne","department":"Essonne","long":2.37271,"lat":48.5298,"coating":"Béton","open":false,"type":"Salle multisports"},{"name":"Gymnase Pierre Et Marie Curie","address":"6 Rue Pierre Et Marie Curie","postal_code":"92048","city":"Meudon","department":"Hauts-de-Seine","long":2.227682,"lat":48.78987,"coating":"Parquet","open":false,"type":"Salle multisports"},{"name":"Terrain de Sport","address":"72 Avenue Des Tilleuls","postal_code":"78048","city":"Bazainville","department":"Yvelines","long":1.6723400000000002,"lat":48.80516,"coating":"Bitume","open":false,"type":"Terrain de basket-ball"},{"name":"Gymnase Charles Peguy","address":"20 Avenue de La Liberte","postal_code":"94046","city":"Maisons-Alfort","department":"Val-de-Marne","long":2.430487,"lat":48.794898,"coating":"Synthétique (hors gazon)","open":false,"type":"Salle multisports"},{"name":"Hall de Sports - Stade de Beauregard","address":"76 Avenue Blanche de Castille","postal_code":"78498","city":"Poissy","department":"Yvelines","long":2.02374,"lat":48.92075,"coating":"Synthétique (hors gazon)","open":false,"type":"Salle multisports"},{"name":"Gymnase Utrillo","address":"20 Rue Jules Ferry","postal_code":"95427","city":"Montmagny","department":"Val-d'Oise","long":2.33892,"lat":48.9639,"coating":"Synthétique (hors gazon)","open":false,"type":"Salle multisports"},{"name":"College Jean-Baptiste Vermay Et Lycee Clement Ader","address":"70 Rue Georges Clemenceau","postal_code":"77470","city":"Tournan-en-Brie","department":"Seine-et-Marne","long":2.75096,"lat":48.74288,"coating":"Synthétique (hors gazon)","open":false,"type":"Salle multisports"},{"name":"Ecole Paul Vaillant Couturier","address":"26 Avenue Paul Vaillant Couturier","postal_code":"92007","city":"Bagneux","department":"Hauts-de-Seine","long":2.31401,"lat":48.7928,"coating":"Bitume","open":false,"type":"Plateau EPS/Multisports/city-stades"},{"name":"Terrains de Proximite Des Brouets","address":"30 Boulevard Victor Schoelcher","postal_code":"78362","city":"Mantes-la-Ville","department":"Yvelines","long":1.6947100000000002,"lat":48.98161,"coating":"Bitume","open":false,"type":"Plateau EPS/Multisports/city-stades"},{"name":"Espace Multisports","address":"1 Rue Du Bicentenaire","postal_code":"77377","city":"Presles-en-Brie","department":"Seine-et-Marne","long":2.737153,"lat":48.716347999999996,"coating":"Béton","open":false,"type":"Plateau EPS/Multisports/city-stades"},{"name":"Association D'Education Specialisee Ades","address":"4 Ter Rue Des Vallees","postal_code":"91114","city":"Brunoy","department":"Essonne","long":2.51002,"lat":48.6983,"coating":"Bitume","open":false,"type":"Plateau EPS/Multisports/city-stades"},{"name":"Salle Polyvalente Le Nouzet","address":"115 Route de Corbeil","postal_code":"91421","city":"Montgeron","department":"Essonne","long":2.43997,"lat":48.7057,"coating":"Synthétique (hors gazon)","open":false,"type":"Salle multisports"},{"name":"Tep Dunois","address":"59 Rue Dunois","postal_code":"75056","city":"Paris","department":"Paris","long":2.36609,"lat":48.83231,"coating":"Bitume","open":false,"type":"Plateau EPS/Multisports/city-stades"},{"name":"Gymnase La Noue","address":"58 Rue de Lieusaint","postal_code":"77122","city":"Combs-la-Ville","department":"Seine-et-Marne","long":2.56242,"lat":48.66199,"coating":"Parquet","open":false,"type":"Salle multisports"},{"name":"Terrain de Proximite Rue de Paris","address":"220 Rue de Paris","postal_code":"93045","city":"Lilas","department":"Seine-Saint-Denis","long":2.42011,"lat":48.88078,"coating":"Bitume","open":false,"type":"Terrain de basket-ball"},{"name":"Gymnase de La Gaite","address":"43 Rue de La Gaite","postal_code":"94058","city":"Perreux-sur-Marne","department":"Val-de-Marne","long":2.503011,"lat":48.847364999999996,"coating":"Synthétique (hors gazon)","open":false,"type":"Salle multisports"},{"name":"Complexe Sportif Lilian Thuram","address":"23 Rue Du General de Gaulle","postal_code":"94021","city":"Chevilly-Larue","department":"Val-de-Marne","long":2.34137,"lat":48.77296,"coating":"Synthétique (hors gazon)","open":false,"type":"Salle multisports"},{"name":"Plateau D'Evolution de Proximite Boulevard Des Allies","address":"3 Boulevard Des Allies","postal_code":"94042","city":"Joinville-le-Pont","department":"Val-de-Marne","long":2.4755089999999997,"lat":48.827909,"coating":"Stabilisé/cendrée","open":false,"type":"Plateau EPS/Multisports/city-stades"},{"name":"Gymnase Pablo Neruda","address":"16 Rue de Franceville","postal_code":"93032","city":"Gagny","department":"Seine-Saint-Denis","long":2.5437700000000003,"lat":48.8887,"coating":"Synthétique (hors gazon)","open":false,"type":"Salle multisports"},{"name":"Institution Sainte-Marie","address":"2 Rue de L'Abbaye","postal_code":"92002","city":"Antony","department":"Hauts-de-Seine","long":2.29859,"lat":48.7535,"coating":"Synthétique (hors gazon)","open":false,"type":"Salle multisports"},{"name":"Gymnase Maurice Baquet","address":"7 Rue Maurice Baquet","postal_code":"94017","city":"Champigny-sur-Marne","department":"Val-de-Marne","long":2.502566,"lat":48.82594,"coating":"Synthétique (hors gazon)","open":false,"type":"Salle multisports"},{"name":"Complexe Sportif","address":"51 Rue de Nuisement","postal_code":"78537","city":"Saint-Arnoult-en-Yvelines","department":"Yvelines","long":1.95335,"lat":48.57475,"coating":"Synthétique (hors gazon)","open":false,"type":"Salle multisports"},{"name":"City Stade Du Commissariat","address":"252 Route de Corbeil","postal_code":"91549","city":"Sainte-Geneviève-des-Bois","department":"Essonne","long":2.33658,"lat":48.63188,"coating":"Synthétique (hors gazon)","open":false,"type":"Plateau EPS/Multisports/city-stades"},{"name":"Stade Maurice Arnoux","address":"107 Rue Maurice Arnoux","postal_code":"92049","city":"Montrouge","department":"Hauts-de-Seine","long":2.312121,"lat":48.814554,"coating":"Bitume","open":false,"type":"Plateau EPS/Multisports/city-stades"},{"name":"College Jean Vilar","address":"28 Rue de La Gare","postal_code":"93027","city":"Courneuve","department":"Seine-Saint-Denis","long":2.38569,"lat":48.92268,"coating":"Bitume","open":false,"type":"Terrain de handball"},{"name":"Lycee - College Beth Anna","address":"49 Rue Petit","postal_code":"75056","city":"Paris","department":"Paris","long":2.385,"lat":48.88521,"coating":"Synthétique (hors gazon)","open":false,"type":"Salle multisports"},{"name":"Terrain Multisports Amedee Huon","address":"Rue Rue Amedee Huon","postal_code":"94041","city":"Ivry-sur-Seine","department":"Val-de-Marne","long":2.38433,"lat":48.80416,"coating":"Gazon synthétique","open":false,"type":"Plateau EPS/Multisports/city-stades"},{"name":"Stade Des Marmousets","address":"39 Boulevard Du Champ Du Moulin","postal_code":"77449","city":"Serris","department":"Seine-et-Marne","long":2.789165,"lat":48.8487,"coating":"Synthétique (hors gazon)","open":false,"type":"Plateau EPS/Multisports/city-stades"},{"name":"Installation de La Gendarmerie","address":"172 Avenue Jean-Jaurès","postal_code":"93001","city":"Aubervilliers","department":"Seine-Saint-Denis","long":2.40376,"lat":48.9107,"coating":"Bitume","open":false,"type":"Terrain de basket-ball"},{"name":"Terrain de Proximite Joseane Adelaide","address":"24 Rue Du Marquis de Raies","postal_code":"91182","city":"Courcouronnes","department":"Essonne","long":2.4164,"lat":48.62733,"coating":"Béton","open":false,"type":"Terrain de basket-ball"},{"name":"Gymnase Georges Racine","address":"94 Boulevard General Leclerc","postal_code":"92024","city":"Clichy","department":"Hauts-de-Seine","long":2.30992,"lat":48.90693,"coating":"Béton","open":false,"type":"Salle multisports"},{"name":"Complexe Sportif La Rochefoucault","address":"59 Rue Du Guet","postal_code":"77183","city":"Ferté-sous-Jouarre","department":"Seine-et-Marne","long":3.13256,"lat":48.94457,"coating":"Bitume","open":false,"type":"Salle multisports"},{"name":"Gymnase Rabeyrolles","address":"202 Avenue Du Maréchal de Lattre de Tassigny","postal_code":"93045","city":"Lilas","department":"Seine-Saint-Denis","long":2.4283,"lat":48.87986,"coating":"Synthétique (hors gazon)","open":false,"type":"Salle multisports"},{"name":"Gymnase Jacques Ducasse","address":"5 Boulevard Chastenet de Gery","postal_code":"94043","city":"Kremlin-Bicêtre","department":"Val-de-Marne","long":2.35786,"lat":48.80688,"coating":"Gazon synthétique","open":false,"type":"Plateau EPS/Multisports/city-stades"},{"name":"College Jules Ferry - Gymnase Rene Chapou","address":"8 Bis Avenue Bizet","postal_code":"94042","city":"Joinville-le-Pont","department":"Val-de-Marne","long":2.476902,"lat":48.824395,"coating":"Bitume","open":false,"type":"Plateau EPS/Multisports/city-stades"},{"name":"Gymnase Vaugirard Littre","address":"87 Rue de Vaugirard","postal_code":"75056","city":"Paris","department":"Paris","long":2.32348,"lat":48.84594,"coating":"Parquet","open":false,"type":"Salle multisports"},{"name":"Gymnase Joliot Curie","address":"21 Rue Raspail","postal_code":"94041","city":"Ivry-sur-Seine","department":"Val-de-Marne","long":2.38964,"lat":48.81028,"coating":"Synthétique (hors gazon)","open":false,"type":"Salle multisports"},{"name":"Paris Stadium Charlemagne","address":"9 Rue Charlemagne","postal_code":"75056","city":"Paris","department":"Paris","long":2.36017,"lat":48.85323,"coating":"Synthétique (hors gazon)","open":false,"type":"Terrain de basket-ball"},{"name":"Gymnase Denfert Rochereau","address":"42 Rue Denfert Rochereau","postal_code":"92012","city":"Boulogne-Billancourt","department":"Hauts-de-Seine","long":2.24529,"lat":48.84386,"coating":"Bitume","open":false,"type":"Plateau EPS/Multisports/city-stades"},{"name":"Square de L'Abbe Lemire","address":"108 Rue Vercingetorix","postal_code":"75056","city":"Paris","department":"Paris","long":2.3149800000000003,"lat":48.83546,"coating":"Synthétique (hors gazon)","open":false,"type":"Plateau EPS/Multisports/city-stades"},{"name":"Gymnase de La Varenne","address":"20 Rue de Verdun","postal_code":"93051","city":"Noisy-le-Grand","department":"Seine-Saint-Denis","long":2.53458,"lat":48.84554,"coating":"Parquet","open":false,"type":"Salle multisports"},{"name":"Stade Charles Finalteri","address":"197 Rue Des Landes","postal_code":"78146","city":"Chatou","department":"Yvelines","long":2.14052,"lat":48.90129,"coating":"Synthétique (hors gazon)","open":false,"type":"Salle multisports"},{"name":"Gymnase Leo Lagrange","address":"8 Avenue de L'Europe","postal_code":"94079","city":"Villiers-sur-Marne","department":"Val-de-Marne","long":2.5515,"lat":48.82371,"coating":"Synthétique (hors gazon)","open":false,"type":"Salle multisports"},{"name":"Centre Sportif Bertrand Dauvin","address":"12 Rue Rene Binet","postal_code":"75056","city":"Paris","department":"Paris","long":2.34247,"lat":48.89948,"coating":"Synthétique (hors gazon)","open":false,"type":"Terrain de basket-ball"},{"name":"Gymnase Duclos","address":"1 Place de La Republique","postal_code":"92046","city":"Malakoff","department":"Hauts-de-Seine","long":2.305054,"lat":48.82416,"coating":"Synthétique (hors gazon)","open":false,"type":"Salle multisports"},{"name":"Ensemble Sportif Pablo Neruda","address":"17 Rue Salvador Allende","postal_code":"93070","city":"Saint-Ouen","department":"Seine-Saint-Denis","long":2.33732,"lat":48.91687,"coating":"Bitume","open":false,"type":"Terrain de basket-ball"},{"name":"Stade Adolphe Cheron","address":"2 Avenue de Neptune","postal_code":"94068","city":"Saint-Maur-des-Fossés","department":"Val-de-Marne","long":2.492959,"lat":48.807266,"coating":"Bitume","open":false,"type":"Terrain de basket-ball"},{"name":"Gymnase T. Rey","address":"16 Avenue Jean Mermoz","postal_code":"77243","city":"Lagny-sur-Marne","department":"Seine-et-Marne","long":2.71773,"lat":48.87155,"coating":"Synthétique (hors gazon)","open":false,"type":"Salle multisports"},{"name":"Gymnase de La Nacelle","address":"6 Rue de La Nacelle","postal_code":"91174","city":"Corbeil-Essonnes","department":"Essonne","long":2.462073,"lat":48.597942,"coating":"Synthétique (hors gazon)","open":false,"type":"Salle multisports"},{"name":"Complexe Langevin-Dian","address":"6 Rue Paul Langevin","postal_code":"93079","city":"Villetaneuse","department":"Seine-Saint-Denis","long":2.34131,"lat":48.9532,"coating":"Synthétique (hors gazon)","open":false,"type":"Salle multisports"},{"name":"Groupe Scolaire Robespierre","address":"13 Rue Charles Garnier","postal_code":"95268","city":"Garges-lès-Gonesse","department":"Val-d'Oise","long":2.39726,"lat":48.97125,"coating":"Béton","open":false,"type":"Plateau EPS/Multisports/city-stades"},{"name":"Gymnase Emile Lecuirot","address":"28 Avenue Joyeuse","postal_code":"94042","city":"Joinville-le-Pont","department":"Val-de-Marne","long":2.47633,"lat":48.818635,"coating":"Synthétique (hors gazon)","open":false,"type":"Salle multisports"},{"name":"College International","address":"48 Rue Guerin","postal_code":"77186","city":"Fontainebleau","department":"Seine-et-Marne","long":2.69483,"lat":48.41034,"coating":"Bitume","open":false,"type":"Terrain de basket-ball"},{"name":"Stade Leo Lagrange","address":"1 Rue Robert Schuman","postal_code":"95019","city":"Arnouville","department":"Val-d'Oise","long":2.41945,"lat":48.9921,"coating":"Synthétique (hors gazon)","open":false,"type":"Salle multisports"},{"name":"Commissariat de L'Armee de Terre","address":"11 Rue Groussay","postal_code":"78517","city":"Rambouillet","department":"Yvelines","long":1.81948,"lat":48.65442,"coating":"Synthétique (hors gazon)","open":false,"type":"Salle multisports"},{"name":"Complexe Sportif de La Bonde","address":"5 Place de La Cimballe","postal_code":"78321","city":"Jouars-Pontchartrain","department":"Yvelines","long":1.888683,"lat":48.804288,"coating":"Synthétique (hors gazon)","open":false,"type":"Salle multisports"},{"name":"Stade Alain Mimoun","address":"1 Rue de Rabelais","postal_code":"92040","city":"Issy-les-Moulineaux","department":"Hauts-de-Seine","long":2.26539,"lat":48.81626,"coating":"Parquet","open":false,"type":"Salle multisports"},{"name":"Jardin Des Jardiniers","address":"4 Impasse Des Jardiniers","postal_code":"75056","city":"Paris","department":"Paris","long":2.39156,"lat":48.85222,"coating":"Bitume","open":false,"type":"Plateau EPS/Multisports/city-stades"},{"name":"Complexe Jean Bullant","address":"18 Avenue Du Marechal Foch","postal_code":"95205","city":"Écouen","department":"Val-d'Oise","long":2.3719200000000003,"lat":49.02832,"coating":"Synthétique (hors gazon)","open":false,"type":"Salle multisports"},{"name":"Gymnase Joliot Curie","address":"104 Avenue D'Alfortville","postal_code":"94022","city":"Choisy-le-Roi","department":"Val-de-Marne","long":2.4168,"lat":48.774004,"coating":"Synthétique (hors gazon)","open":false,"type":"Salle multisports"},{"name":"Centre Sportif Lagny","address":"19 Rue Lagny","postal_code":"75056","city":"Paris","department":"Paris","long":2.401862,"lat":48.849733,"coating":"Synthétique (hors gazon)","open":false,"type":"Terrain de basket-ball"},{"name":"Gymnase Joliot Curie","address":"78 Avenue de La Dhuys","postal_code":"93006","city":"Bagnolet","department":"Seine-Saint-Denis","long":2.41791,"lat":48.87326,"coating":"Parquet","open":false,"type":"Salle multisports"},{"name":"Gymnase Des Amiraux","address":"17 Rue Des Amiraux","postal_code":"75056","city":"Paris","department":"Paris","long":2.36278,"lat":48.8945,"coating":"Parquet","open":false,"type":"Salle multisports"},{"name":"Salle de Judo Et Tennis","address":"30 Route de Moret","postal_code":"77302","city":"Montcourt-Fromonville","department":"Seine-et-Marne","long":2.70441,"lat":48.3022,"coating":"Bitume","open":false,"type":"Plateau EPS/Multisports/city-stades"},{"name":"City-Stade de La Lutece","address":"93 Rue Du Professeur Einstein","postal_code":"94034","city":"Fresnes","department":"Val-de-Marne","long":2.3252800000000002,"lat":48.76318,"coating":"Synthétique (hors gazon)","open":false,"type":"Plateau EPS/Multisports/city-stades"},{"name":"Stade Des Fontaines","address":"12 Rue Albert Dammouse","postal_code":"92072","city":"Sèvres","department":"Hauts-de-Seine","long":2.21439,"lat":48.818,"coating":"Bitume","open":false,"type":"Terrain de volley-ball"},{"name":"Gymnase Paul Eluard","address":"1 Rue de Burnley","postal_code":"94081","city":"Vitry-sur-Seine","department":"Val-de-Marne","long":2.389482,"lat":48.787348,"coating":"Synthétique (hors gazon)","open":false,"type":"Salle multisports"},{"name":"La Halle Des Blancs Manteaux","address":"48 Rue Vieille Du Temple","postal_code":"75056","city":"Paris","department":"Paris","long":2.3586,"lat":48.85813,"coating":"Parquet","open":false,"type":"Salle multisports"},{"name":"Stade Et Gymnase Les Merlettes","address":"73 Bis Rue Des Merlettes Montesson","postal_code":"78650","city":"Vésinet","department":"Yvelines","long":2.122549,"lat":48.906936,"coating":"Parquet","open":false,"type":"Salle multisports"},{"name":"Complexe Des Pyramides","address":"11 Avenue Des Pyramides","postal_code":"77083","city":"Champs-sur-Marne","department":"Seine-et-Marne","long":2.58639,"lat":48.8513,"coating":"Bitume","open":false,"type":"Plateau EPS/Multisports/city-stades"},{"name":"College Pierre de Ronsard","address":"140 Avenue de Wagram","postal_code":"75056","city":"Paris","department":"Paris","long":2.304071,"lat":48.885929,"coating":"Synthétique (hors gazon)","open":false,"type":"Salle multisports"},{"name":"Centre Sportif Rene Rousseau","address":"12 Avenue D'Alfortville","postal_code":"94022","city":"Choisy-le-Roi","department":"Val-de-Marne","long":2.415061,"lat":48.767985,"coating":"Synthétique (hors gazon)","open":false,"type":"Salle multisports"},{"name":"Maison D'Arret Centrale","address":"17 Rue Abbaye","postal_code":"78498","city":"Poissy","department":"Yvelines","long":2.03891,"lat":48.92755,"coating":"Synthétique (hors gazon)","open":false,"type":"Salle multisports"},{"name":"College Romain Rolland","address":"36 Rue Jean Baptiste Renoult","postal_code":"94041","city":"Ivry-sur-Seine","department":"Val-de-Marne","long":2.39426,"lat":48.80314,"coating":"Synthétique (hors gazon)","open":false,"type":"Salle multisports"},{"name":"Gymnase Maurice Rousseau","address":"52 Avenue Claire","postal_code":"94019","city":"Chennevières-sur-Marne","department":"Val-de-Marne","long":2.546645,"lat":48.800487,"coating":"Synthétique (hors gazon)","open":false,"type":"Salle multisports"},{"name":"Complexe Sportif Raymond Rambert","address":"42953 Avenue Raymond Rambert","postal_code":"95277","city":"Gonesse","department":"Val-d'Oise","long":2.43896,"lat":48.98389,"coating":"Synthétique (hors gazon)","open":false,"type":"Salle multisports"},{"name":"Ensemble Sportif Du College Jean Campin","address":"28 Rue Andre Maginot","postal_code":"77182","city":"Ferté-Gaucher","department":"Seine-et-Marne","long":3.30385,"lat":48.7855,"coating":"Bitume","open":false,"type":"Plateau EPS/Multisports/city-stades"},{"name":"Complexe de L'Orme Au Chat","address":"28 Boulevard de Brandebourg","postal_code":"94041","city":"Ivry-sur-Seine","department":"Val-de-Marne","long":2.39981,"lat":48.8152,"coating":"Bitume","open":false,"type":"Plateau EPS/Multisports/city-stades"},{"name":"Maison D'Arret","address":"5 Bis Rue Alexandre Turpault","postal_code":"78073","city":"Bois-d'Arcy","department":"Yvelines","long":2.02933,"lat":48.80651,"coating":"Synthétique (hors gazon)","open":false,"type":"Salle multisports"},{"name":"Lycee François Villon","address":"16 Avenue Marc Sangnier","postal_code":"75056","city":"Paris","department":"Paris","long":2.30797,"lat":48.825,"coating":"Parquet","open":false,"type":"Salle multisports"},{"name":"Gymnase Camou","address":"35 Avenue de La Bourdonnais","postal_code":"75056","city":"Paris","department":"Paris","long":2.29889,"lat":48.85831,"coating":"Parquet","open":false,"type":"Salle multisports"},{"name":"Complexe Sportif de La Caisse Des Depots Et Consignations","address":"77 Rue Marius Sidobre","postal_code":"94003","city":"Arcueil","department":"Val-de-Marne","long":2.3325,"lat":48.80464,"coating":"Parquet","open":false,"type":"Salle multisports"},{"name":"Square Raymond Queneau","address":"22 Rue Raymond Queneau","postal_code":"75056","city":"Paris","department":"Paris","long":2.360913,"lat":48.896084,"coating":"Béton","open":false,"type":"Plateau EPS/Multisports/city-stades"},{"name":"Stade Onera","address":"9 Avenue de Trivaux","postal_code":"92048","city":"Meudon","department":"Hauts-de-Seine","long":2.23433,"lat":48.7988,"coating":"Stabilisé/cendrée","open":false,"type":"Terrain de basket-ball"},{"name":"Gymnase Des Abondances","address":"48 Rue Des Abondances","postal_code":"92012","city":"Boulogne-Billancourt","department":"Hauts-de-Seine","long":2.23053,"lat":48.84509,"coating":"Synthétique (hors gazon)","open":false,"type":"Salle multisports"},{"name":"Stade Intercommunal Des Colleges","address":"4 Rue Jules Verne","postal_code":"77333","city":"Nemours","department":"Seine-et-Marne","long":2.7153400000000003,"lat":48.26384,"coating":"Synthétique (hors gazon)","open":false,"type":"Salle multisports"},{"name":"Salle Polyvalente","address":"7 Route de Gambais","postal_code":"78381","city":"Maulette","department":"Yvelines","long":1.62527,"lat":48.79221,"coating":"Bitume","open":false,"type":"Terrain de basket-ball"},{"name":"Gymnase Julie Vlasto","address":"8 Passage Delessert","postal_code":"75056","city":"Paris","department":"Paris","long":2.36562,"lat":48.87896,"coating":"Synthétique (hors gazon)","open":false,"type":"Salle multisports"},{"name":"Stade Gaston Roussel","address":"12 Avenue Du Parc Des Sports","postal_code":"94034","city":"Fresnes","department":"Val-de-Marne","long":2.31652,"lat":48.75146,"coating":"Synthétique (hors gazon)","open":false,"type":"Plateau EPS/Multisports/city-stades"},{"name":"Parc Interdepartemental de Sports","address":"51 Avenue Roger Salengro","postal_code":"93027","city":"Courneuve","department":"Seine-Saint-Denis","long":2.39656,"lat":48.9359,"coating":"Bitume","open":false,"type":"Plateau EPS/Multisports/city-stades"},{"name":"Lycee Paul Eluard","address":"15 Avenue Jean Moulin","postal_code":"93066","city":"Saint-Denis","department":"Seine-Saint-Denis","long":2.36063,"lat":48.94293,"coating":"Bitume","open":false,"type":"Terrain de basket-ball"},{"name":"Complexe Jean Bouin","address":"106 Avenue Charles Floquet","postal_code":"93007","city":"Blanc-Mesnil","department":"Seine-Saint-Denis","long":2.45283,"lat":48.94022,"coating":"Parquet","open":false,"type":"Salle multisports"},{"name":"Gymnase Eugenie Cotton","address":"8 Rue Girardot","postal_code":"93006","city":"Bagnolet","department":"Seine-Saint-Denis","long":2.42436,"lat":48.87417,"coating":"Synthétique (hors gazon)","open":false,"type":"Salle multisports"},{"name":"Gymnase Des Closeaux","address":"45 Chemin de Crecy","postal_code":"77330","city":"Nanteuil-lès-Meaux","department":"Seine-et-Marne","long":2.88547,"lat":48.92747,"coating":"Synthétique (hors gazon)","open":false,"type":"Plateau EPS/Multisports/city-stades"},{"name":"Gymnase Allezard","address":"38 Rue Juliette Savar","postal_code":"94028","city":"Créteil","department":"Val-de-Marne","long":2.46196,"lat":48.78481,"coating":"Bitume","open":false,"type":"Plateau EPS/Multisports/city-stades"},{"name":"Gymnase Joliot Curie","address":"27 Avenue Molière","postal_code":"93059","city":"Pierrefitte-sur-Seine","department":"Seine-Saint-Denis","long":2.362967,"lat":48.9542,"coating":"Bitume","open":false,"type":"Plateau EPS/Multisports/city-stades"},{"name":"City Stade","address":"3 Allée El Ouafi","postal_code":"92012","city":"Boulogne-Billancourt","department":"Hauts-de-Seine","long":2.23804,"lat":48.829390000000004,"coating":"Bitume","open":false,"type":"Plateau EPS/Multisports/city-stades"},{"name":"Gymnase Des Buttes","address":"45 Avenue Sainte Marie","postal_code":"94028","city":"Créteil","department":"Val-de-Marne","long":2.46113,"lat":48.80015,"coating":"Synthétique (hors gazon)","open":false,"type":"Salle multisports"},{"name":"Plateau D'Evolution Du Centre de Loisirs","address":"2 Chemin Des Renouillères","postal_code":"93049","city":"Neuilly-Plaisance","department":"Seine-Saint-Denis","long":2.51279,"lat":48.86514,"coating":"Bitume","open":false,"type":"Plateau EPS/Multisports/city-stades"},{"name":"Gymnase Bel Air","address":"4 Rue Du Bel Air","postal_code":"92048","city":"Meudon","department":"Hauts-de-Seine","long":2.22413,"lat":48.8148,"coating":"Parquet","open":false,"type":"Salle multisports"},{"name":"Lycée Professionnel Marcel Cachin","address":"41579 Rue Marcel Cachin","postal_code":"93070","city":"Saint-Ouen","department":"Seine-Saint-Denis","long":2.33812,"lat":48.91793,"coating":"Bitume","open":false,"type":"Plateau EPS/Multisports/city-stades"},{"name":"Gymnase Bartholdi","address":"30 Rue de L'Ancienne Mairie","postal_code":"92012","city":"Boulogne-Billancourt","department":"Hauts-de-Seine","long":2.23341,"lat":48.83929,"coating":"Synthétique (hors gazon)","open":false,"type":"Salle multisports"},{"name":"Gymnase Paul Langevin","address":"29 Rue Albert 1Er","postal_code":"94022","city":"Choisy-le-Roi","department":"Val-de-Marne","long":2.412956,"lat":48.755772,"coating":"Parquet","open":false,"type":"Salle multisports"},{"name":"City Stade 2","address":"69 Avenue de L'Europe","postal_code":"77169","city":"Émerainville","department":"Seine-et-Marne","long":2.59903,"lat":48.83086,"coating":"Synthétique (hors gazon)","open":false,"type":"Plateau EPS/Multisports/city-stades"},{"name":"Gymnase Caillaux","address":"3 Rue Caillaux","postal_code":"75056","city":"Paris","department":"Paris","long":2.36189,"lat":48.82279,"coating":"Synthétique (hors gazon)","open":false,"type":"Salle multisports"},{"name":"Complexe Henri Vidal","address":"9 Rue Utrillo","postal_code":"93047","city":"Montfermeil","department":"Seine-Saint-Denis","long":2.554467,"lat":48.903533,"coating":"Bitume","open":false,"type":"Plateau EPS/Multisports/city-stades"},{"name":"Gymnase Des Cherelles","address":"29 Avenue Jean Moulin","postal_code":"77333","city":"Nemours","department":"Seine-et-Marne","long":2.70839,"lat":48.27094,"coating":"Parquet","open":false,"type":"Salle multisports"},{"name":"Tep Jemmapes","address":"146 Quai de Jemmapes","postal_code":"75056","city":"Paris","department":"Paris","long":2.36557,"lat":48.87678,"coating":"Bitume","open":false,"type":"Terrain de basket-ball"},{"name":"Gymnase Nelson Mandela","address":"1 Rue Fernand Picquette","postal_code":"95250","city":"Fosses","department":"Val-d'Oise","long":2.51692,"lat":49.09804,"coating":"Synthétique (hors gazon)","open":false,"type":"Salle multisports"},{"name":"Centre Sportif Carnot","address":"26 Boulevard Carnot","postal_code":"75056","city":"Paris","department":"Paris","long":2.41281,"lat":48.84299,"coating":"Synthétique (hors gazon)","open":false,"type":"Salle multisports"},{"name":"Complexe Sportif Paul Langevin","address":"11 Rue Du 18 Avril 1944","postal_code":"93053","city":"Noisy-le-Sec","department":"Seine-Saint-Denis","long":2.45919,"lat":48.8845,"coating":"Gazon synthétique","open":false,"type":"Plateau EPS/Multisports/city-stades"},{"name":"Paris International Golf Club","address":"18 Route Du Golf","postal_code":"95042","city":"Baillet-en-France","department":"Val-d'Oise","long":2.29921,"lat":49.052,"coating":"Béton","open":false,"type":"Plateau EPS/Multisports/city-stades"},{"name":"Gymnase Balzac","address":"97-99 Rue Balzac","postal_code":"94081","city":"Vitry-sur-Seine","department":"Val-de-Marne","long":2.400284,"lat":48.776794,"coating":"Synthétique (hors gazon)","open":false,"type":"Salle multisports"},{"name":"Gendarmerie","address":"60 Rue Auguste Blanqui","postal_code":"93029","city":"Drancy","department":"Seine-Saint-Denis","long":2.45922,"lat":48.91883,"coating":"Synthétique (hors gazon)","open":false,"type":"Salle multisports"},{"name":"Lycee Gustave Manod","address":"71 Avenue Ceinture","postal_code":"95210","city":"Enghien-les-Bains","department":"Val-d'Oise","long":2.3032500000000002,"lat":48.9776,"coating":"Béton","open":false,"type":"Plateau EPS/Multisports/city-stades"},{"name":"Piscine Henri Wallon","address":"201 Avenue Aristide Briand","postal_code":"93007","city":"Blanc-Mesnil","department":"Seine-Saint-Denis","long":2.45609,"lat":48.94678,"coating":"Synthétique (hors gazon)","open":false,"type":"Plateau EPS/Multisports/city-stades"},{"name":"Complexe Sportif de Gency","address":"1 Bis Rue Du Pampe D'Or","postal_code":"95127","city":"Cergy","department":"Val-d'Oise","long":2.04112,"lat":49.04593,"coating":"Synthétique (hors gazon)","open":false,"type":"Salle multisports"},{"name":"College Robert Doisneau","address":"1 Rue Du 11 Novembre","postal_code":"92049","city":"Montrouge","department":"Hauts-de-Seine","long":2.317531,"lat":48.820925,"coating":"Bitume","open":false,"type":"Plateau EPS/Multisports/city-stades"},{"name":"Stade Charles Auray","address":"19 Rue de Candale","postal_code":"93055","city":"Pantin","department":"Seine-Saint-Denis","long":2.41472,"lat":48.88652,"coating":"Bitume","open":false,"type":"Terrain de basket-ball"},{"name":"Plateau Sportif Jean Jacques Rousseau","address":"42 Rue Jean Jacques Rousseau","postal_code":"94041","city":"Ivry-sur-Seine","department":"Val-de-Marne","long":2.39382,"lat":48.81716,"coating":"Bitume","open":false,"type":"Terrain de basket-ball"},{"name":"Jardin de La Gare de Charonne","address":"63 Bd Davout 68 Rue Volga","postal_code":"75056","city":"Paris","department":"Paris","long":2.40949,"lat":48.8676,"coating":"Bitume","open":false,"type":"Terrain de basket-ball"},{"name":"Lycee College Maurice Ravel","address":"89 Cours de Vincennes","postal_code":"75056","city":"Paris","department":"Paris","long":2.40824,"lat":48.8476,"coating":"Synthétique (hors gazon)","open":false,"type":"Salle multisports"},{"name":"Gymnase Jean Guimier","address":"55 Avenue de Valenton","postal_code":"94044","city":"Limeil-Brévannes","department":"Val-de-Marne","long":2.50394,"lat":48.743375,"coating":"Synthétique (hors gazon)","open":false,"type":"Salle multisports"},{"name":"Aift Industrie Centre de Formation Des Apprentis","address":"3 Rue de Villeroy","postal_code":"91086","city":"Bondoufle","department":"Essonne","long":2.37904,"lat":48.61898,"coating":"Béton","open":false,"type":"Plateau EPS/Multisports/city-stades"},{"name":"Complexe Sportif Auguste Delaune","address":"119 Rue de Verdun","postal_code":"94017","city":"Champigny-sur-Marne","department":"Val-de-Marne","long":2.495016,"lat":48.815247,"coating":"Parquet","open":false,"type":"Salle multisports"},{"name":"Gymnase Du Plan D'Argent","address":"19 Rue Du Plant D'Argent","postal_code":"93005","city":"Aulnay-sous-Bois","department":"Seine-Saint-Denis","long":2.50821,"lat":48.92416,"coating":"Synthétique (hors gazon)","open":false,"type":"Salle multisports"},{"name":"Complexe Sportif Raoul Dautry","address":"105 Rue Saint Gratien","postal_code":"95219","city":"Ermont","department":"Val-d'Oise","long":2.26364,"lat":48.9793,"coating":"Synthétique (hors gazon)","open":false,"type":"Salle multisports"},{"name":"Centre Sportif Max Rousie","address":"28 Rue Andre Brechet","postal_code":"75056","city":"Paris","department":"Paris","long":2.32613,"lat":48.8997,"coating":"Synthétique (hors gazon)","open":false,"type":"Terrain de basket-ball"},{"name":"Gymnase Robespierre","address":"19 Rue Danielle Casanova","postal_code":"93001","city":"Aubervilliers","department":"Seine-Saint-Denis","long":2.39132,"lat":48.91905,"coating":"Synthétique (hors gazon)","open":false,"type":"Plateau EPS/Multisports/city-stades"},{"name":"Institut Du Sacre Coeur","address":"1 Rue Ambroise Pare","postal_code":"91665","city":"Ville-du-Bois","department":"Essonne","long":2.26527,"lat":48.661472,"coating":"Synthétique (hors gazon)","open":false,"type":"Salle multisports"},{"name":"Espace Langevin","address":"31-33 Rue Albert 1Er","postal_code":"94022","city":"Choisy-le-Roi","department":"Val-de-Marne","long":2.413019,"lat":48.755481,"coating":"Synthétique (hors gazon)","open":false,"type":"Plateau EPS/Multisports/city-stades"},{"name":"College Pierre Brossolette","address":"154 Bis Avenue Pierre Brossolette","postal_code":"94058","city":"Perreux-sur-Marne","department":"Val-de-Marne","long":2.50753,"lat":48.833047,"coating":"Synthétique (hors gazon)","open":false,"type":"Salle multisports"},{"name":"Dojo Et Gymnase Lavoisier","address":"46 Rue Lavoisier","postal_code":"93064","city":"Rosny-sous-Bois","department":"Seine-Saint-Denis","long":2.49553,"lat":48.86322,"coating":"Synthétique (hors gazon)","open":false,"type":"Salle multisports"},{"name":"Gymnase Lallier","address":"49 Rue Paul Hochart","postal_code":"94038","city":"Haÿ-les-Roses","department":"Val-de-Marne","long":2.355688,"lat":48.776085,"coating":"Synthétique (hors gazon)","open":false,"type":"Salle multisports"},{"name":"Centre Sportif Championnet","address":"172 Rue Championnet","postal_code":"75056","city":"Paris","department":"Paris","long":2.34847,"lat":48.8952,"coating":"Synthétique (hors gazon)","open":false,"type":"Terrain de basket-ball"},{"name":"Lycee Technique Louis Armand","address":"173 Boulevard de Strasbourg","postal_code":"94052","city":"Nogent-sur-Marne","department":"Val-de-Marne","long":2.490914,"lat":48.846722,"coating":"Parquet","open":false,"type":"Salle multisports"},{"name":"Tsp Jardin de La Berionne","address":"15 Rue de La Berionne","postal_code":"95018","city":"Argenteuil","department":"Val-d'Oise","long":2.22152,"lat":48.95209,"coating":"Synthétique (hors gazon)","open":false,"type":"Plateau EPS/Multisports/city-stades"},{"name":"Gymnase Pierre Remond","address":"27 Rue Marguerite","postal_code":"75056","city":"Paris","department":"Paris","long":2.3025700000000002,"lat":48.89236,"coating":"Synthétique (hors gazon)","open":false,"type":"Salle multisports"},{"name":"Cite Internationale Universitaire de Paris","address":"17 Boulevard Jourdan","postal_code":"75056","city":"Paris","department":"Paris","long":2.33126,"lat":48.82024,"coating":"Synthétique (hors gazon)","open":false,"type":"Court de tennis"},{"name":"College-Lycee Rabelais","address":"42951 Rue Georges Langrognet","postal_code":"92048","city":"Meudon","department":"Hauts-de-Seine","long":2.240607,"lat":48.801933,"coating":"Synthétique (hors gazon)","open":false,"type":"Salle multisports"},{"name":"Centre Sportif Jules Noel","address":"3 Avenue Maurice D'Ocagne","postal_code":"75056","city":"Paris","department":"Paris","long":2.31477,"lat":48.82413,"coating":"Synthétique (hors gazon)","open":false,"type":"Salle multisports"},{"name":"Gymnase Japy","address":"2 Rue Japy","postal_code":"75056","city":"Paris","department":"Paris","long":2.38248,"lat":48.85587,"coating":"Parquet","open":false,"type":"Salle multisports"},{"name":"Stade Des Corneilles","address":"47 Boulevard Des Corneilles","postal_code":"94068","city":"Saint-Maur-des-Fossés","department":"Val-de-Marne","long":2.492548,"lat":48.787224,"coating":"Synthétique (hors gazon)","open":false,"type":"Salle multisports"},{"name":"Square Leon Blum","address":"11 Rue de L'Ancienne Mairie","postal_code":"92012","city":"Boulogne-Billancourt","department":"Hauts-de-Seine","long":2.23554,"lat":48.83938,"coating":"Bitume","open":false,"type":"Terrain de basket-ball"},{"name":"Terrain de Proximite Proche Ecole Pablo Picasso","address":"5 Rue Pablo Picasso","postal_code":"91174","city":"Corbeil-Essonnes","department":"Essonne","long":2.46239,"lat":48.61376,"coating":"Bitume","open":false,"type":"Plateau EPS/Multisports/city-stades"},{"name":"Centre Sportif Chaumont","address":"22 Avenue de La Porte Chaumont","postal_code":"75056","city":"Paris","department":"Paris","long":2.398976,"lat":48.885795,"coating":"Synthétique (hors gazon)","open":false,"type":"Salle multisports"},{"name":"Parc François Mitterrand","address":"1 Route de Nozay","postal_code":"91363","city":"Marcoussis","department":"Essonne","long":2.22678,"lat":48.64453,"coating":"Bitume","open":false,"type":"Plateau EPS/Multisports/city-stades"},{"name":"Terrain D'Evolution Abbe Gregoire","address":"16 Allee L'Abbe Gregoire","postal_code":"92007","city":"Bagneux","department":"Hauts-de-Seine","long":2.31593,"lat":48.79056,"coating":"Bitume","open":false,"type":"Terrain de basket-ball"},{"name":"Gymnase Du Lycee Henri Wallon","address":"139 Rue Henri Barbusse","postal_code":"93001","city":"Aubervilliers","department":"Seine-Saint-Denis","long":2.38938,"lat":48.91266,"coating":"Bitume","open":false,"type":"Plateau EPS/Multisports/city-stades"},{"name":"Gymnase Des Cottages","address":"1 Rue Des Parigots","postal_code":"92073","city":"Suresnes","department":"Hauts-de-Seine","long":2.217917,"lat":48.876568,"coating":"Synthétique (hors gazon)","open":false,"type":"Salle multisports"},{"name":"Lycee Guy de Maupassant","address":"52 Rue Robert Schuman","postal_code":"92025","city":"Colombes","department":"Hauts-de-Seine","long":2.2421,"lat":48.92916,"coating":"Bitume","open":false,"type":"Plateau EPS/Multisports/city-stades"},{"name":"Complexe Sportif Venise Gosnat","address":"30 Rue Amedee Huon","postal_code":"94041","city":"Ivry-sur-Seine","department":"Val-de-Marne","long":2.3887,"lat":48.80491,"coating":"Bitume","open":false,"type":"Terrain de basket-ball"},{"name":"Maison D'Arret de Fresnes","address":"1 Allee Des Thuyas","postal_code":"94034","city":"Fresnes","department":"Val-de-Marne","long":2.32196,"lat":48.76325,"coating":"Bitume","open":false,"type":"Terrain de basket-ball"},{"name":"Espace Andre Romanet","address":"11 Avenue Albert Sarraut","postal_code":"95280","city":"Goussainville","department":"Val-d'Oise","long":2.45941,"lat":49.02889,"coating":"Béton","open":false,"type":"Plateau EPS/Multisports/city-stades"},{"name":"Groupe Hec","address":"1 Rue de La Liberation","postal_code":"78322","city":"Jouy-en-Josas","department":"Yvelines","long":2.16838,"lat":48.75485,"coating":"Bitume","open":false,"type":"Plateau EPS/Multisports/city-stades"},{"name":"Terrain de Basket Ball de Proximite","address":"5 Rue Des Rosiers","postal_code":"92014","city":"Bourg-la-Reine","department":"Hauts-de-Seine","long":2.31361,"lat":48.78284,"coating":"Bitume","open":false,"type":"Terrain de basket-ball"},{"name":"Centre Sportif Maryse Hilsz","address":"34 Rue Maryse Hilsz","postal_code":"75056","city":"Paris","department":"Paris","long":2.412975,"lat":48.851419,"coating":"Parquet","open":false,"type":"Salle multisports"},{"name":"Centre Paris-Mandres","address":"2 Chemin Du 8 Mai 1945","postal_code":"94047","city":"Mandres-les-Roses","department":"Val-de-Marne","long":2.55207,"lat":48.70715,"coating":"Bitume","open":false,"type":"Plateau EPS/Multisports/city-stades"},{"name":"Centre Sportif de L'Ile Des Vannes","address":"15 Boulevard Marcel Paul","postal_code":"93039","city":"Île-Saint-Denis","department":"Seine-Saint-Denis","long":2.32268,"lat":48.91786,"coating":"Parquet","open":false,"type":"Salle multisports"},{"name":"Stade Municipal Charlot Charpentier","address":"19 Rue de Rome","postal_code":"78220","city":"Essarts-le-Roi","department":"Yvelines","long":1.89375,"lat":48.72028,"coating":"Bitume","open":false,"type":"Plateau EPS/Multisports/city-stades"},{"name":"Gymnase D'Estienne D'Orves","address":"16 Rue Des Hanots","postal_code":"93048","city":"Montreuil","department":"Seine-Saint-Denis","long":2.44797,"lat":48.86933,"coating":"Bitume","open":false,"type":"Plateau EPS/Multisports/city-stades"},{"name":"Gymnase Charles Peguy","address":"284 Rue Du President Salvador Allende","postal_code":"92025","city":"Colombes","department":"Hauts-de-Seine","long":2.2305,"lat":48.92162,"coating":"Synthétique (hors gazon)","open":false,"type":"Salle multisports"},{"name":"Gymnase Rene Doriant","address":"6 Rue Du Colonel Raynal","postal_code":"93048","city":"Montreuil","department":"Seine-Saint-Denis","long":2.43466,"lat":48.85627,"coating":"Béton","open":false,"type":"Salle multisports"},{"name":"Ecole Lucien de Hirch","address":"70 Avenue Secretan","postal_code":"75056","city":"Paris","department":"Paris","long":2.37629,"lat":48.8798,"coating":"Synthétique (hors gazon)","open":false,"type":"Salle multisports"},{"name":"Complexe Sportif Du Port A L'Anglais","address":"22 Rue Charles Fourier","postal_code":"94081","city":"Vitry-sur-Seine","department":"Val-de-Marne","long":2.408248,"lat":48.803024,"coating":"Bitume","open":false,"type":"Plateau EPS/Multisports/city-stades"},{"name":"Complexe Sportif Paul Emile Victor","address":"500 Rue Du Professeur Paul Milliez","postal_code":"94017","city":"Champigny-sur-Marne","department":"Val-de-Marne","long":2.534504,"lat":48.816089,"coating":"Synthétique (hors gazon)","open":false,"type":"Salle multisports"},{"name":"College Lucie Aubrac","address":"1 Sentier Du Clos","postal_code":"93079","city":"Villetaneuse","department":"Seine-Saint-Denis","long":2.35268,"lat":48.9597,"coating":"Bitume","open":false,"type":"Plateau EPS/Multisports/city-stades"},{"name":"Centre Sportif Candie","address":"11 Rue Candie","postal_code":"75056","city":"Paris","department":"Paris","long":2.38016,"lat":48.85203,"coating":"Gazon synthétique","open":false,"type":"Plateau EPS/Multisports/city-stades"},{"name":"Lep Insdustriel D'Epluches","address":"45 Avenue Du Château","postal_code":"95572","city":"Saint-Ouen-l'Aumône","department":"Val-d'Oise","long":2.13225,"lat":49.0557,"coating":"Bitume","open":false,"type":"Plateau EPS/Multisports/city-stades"},{"name":"Stade de La Paix","address":"64 Avenue de La Paix","postal_code":"94034","city":"Fresnes","department":"Val-de-Marne","long":2.33305,"lat":48.76291,"coating":"Synthétique (hors gazon)","open":false,"type":"Plateau EPS/Multisports/city-stades"},{"name":"College Fabien","address":"1 Rue Max Jacob","postal_code":"93066","city":"Saint-Denis","department":"Seine-Saint-Denis","long":2.35195,"lat":48.94377,"coating":"Synthétique (hors gazon)","open":false,"type":"Salle multisports"},{"name":"Gymnase Didier Pironi","address":"12 Rue Du Reveillon","postal_code":"94075","city":"Villecresnes","department":"Val-de-Marne","long":2.5405699999999998,"lat":48.72039,"coating":"Synthétique (hors gazon)","open":false,"type":"Salle multisports"},{"name":"Centre Sportif de La Grange Aux Belles","address":"17 Rue Boy Zelenski","postal_code":"75056","city":"Paris","department":"Paris","long":2.36813,"lat":48.87752,"coating":"Synthétique (hors gazon)","open":false,"type":"Salle multisports"},{"name":"Ecole Primaire Buffalo","address":"39 Rue Victor Basch","postal_code":"92049","city":"Montrouge","department":"Hauts-de-Seine","long":2.321447,"lat":48.811037,"coating":"Bitume","open":false,"type":"Terrain de basket-ball"},{"name":"Stade Escutary","address":"13 Rue Leo Lagrange","postal_code":"95572","city":"Saint-Ouen-l'Aumône","department":"Val-d'Oise","long":2.11608,"lat":49.0331,"coating":"Bitume","open":false,"type":"Plateau EPS/Multisports/city-stades"},{"name":"Square Saint Eloi","address":"42736 Rue Du Colonel Rozanoff","postal_code":"75056","city":"Paris","department":"Paris","long":2.3879,"lat":48.8443,"coating":"Béton","open":false,"type":"Terrain de basket-ball"},{"name":"College Guy Moquet","address":"42795 Rue Guy Moquet","postal_code":"92036","city":"Gennevilliers","department":"Hauts-de-Seine","long":2.28859,"lat":48.93468,"coating":"Synthétique (hors gazon)","open":false,"type":"Salle multisports"},{"name":"Complexe Sportif Concorde","address":"27 Rue de La Concorde","postal_code":"92004","city":"Asnières-sur-Seine","department":"Hauts-de-Seine","long":2.29015,"lat":48.91286,"coating":"Synthétique (hors gazon)","open":false,"type":"Salle multisports"},{"name":"Association Des Établissements Du Domaine Emmanuel","address":"7 Route de Pezarches","postal_code":"77224","city":"Hautefeuille","department":"Seine-et-Marne","long":2.97186,"lat":48.76285,"coating":"Gazon synthétique","open":false,"type":"Plateau EPS/Multisports/city-stades"},{"name":"Terrain Jacques Prevert","address":"9 Rue Jacques Prevert","postal_code":"92046","city":"Malakoff","department":"Hauts-de-Seine","long":2.31185,"lat":48.8224,"coating":"Synthétique (hors gazon)","open":false,"type":"Plateau EPS/Multisports/city-stades"},{"name":"College Du Haut Mesnil","address":"24 Rue Arthur Auge","postal_code":"92049","city":"Montrouge","department":"Hauts-de-Seine","long":2.306729,"lat":48.814489,"coating":"Bitume","open":false,"type":"Plateau EPS/Multisports/city-stades"},{"name":"Cite Scolaire Montaigne","address":"17 Rue Auguste Comte","postal_code":"75056","city":"Paris","department":"Paris","long":2.33494,"lat":48.84439,"coating":"Synthétique (hors gazon)","open":false,"type":"Salle multisports"},{"name":"Ecole Jean Monnet","address":"11 Mail Des Hauts Jardins","postal_code":"92023","city":"Clamart","department":"Hauts-de-Seine","long":2.26998,"lat":48.80118,"coating":"Synthétique (hors gazon)","open":false,"type":"Salles polyvalentes / des fêtes / non spécialisées"},{"name":"City-Stade","address":"31 Ter Route de Versailles","postal_code":"78502","city":"Port-Marly","department":"Yvelines","long":2.1053,"lat":48.87653,"coating":"Synthétique (hors gazon)","open":false,"type":"Plateau EPS/Multisports/city-stades"},{"name":"Plateau Sportif Cite Régie Immobilière de Paris","address":"19 Rue Gagnee","postal_code":"94041","city":"Ivry-sur-Seine","department":"Val-de-Marne","long":2.38085,"lat":48.80278,"coating":"Bitume","open":false,"type":"Plateau EPS/Multisports/city-stades"},{"name":"Parc Des Sports Andre Dufranne","address":"446 Avenue Morane Saulnier","postal_code":"78117","city":"Buc","department":"Yvelines","long":2.11585,"lat":48.76572,"coating":"Bitume","open":false,"type":"Terrain de basket-ball"},{"name":"Gymnase Paul Meurice","address":"1 Rue Paul Meurice","postal_code":"75056","city":"Paris","department":"Paris","long":2.412071,"lat":48.874105,"coating":"Stabilisé/cendrée","open":false,"type":"Terrain de basket-ball"},{"name":"Centre Sportif E. Galois","address":"5 Rue Des Ecoles","postal_code":"92050","city":"Nanterre","department":"Hauts-de-Seine","long":2.21996,"lat":48.88653,"coating":"Synthétique (hors gazon)","open":false,"type":"Salle multisports"},{"name":"Stade Municipal","address":"45-47 Rue de La Chevee","postal_code":"77437","city":"Saint-Soupplets","department":"Seine-et-Marne","long":2.81393,"lat":49.03851,"coating":"Béton","open":false,"type":"Plateau EPS/Multisports/city-stades"},{"name":"Lycee Professionnel Prive Saint Leon","address":"4 Quai Essonne","postal_code":"91174","city":"Corbeil-Essonnes","department":"Essonne","long":2.48316,"lat":48.609,"coating":"Bitume","open":false,"type":"Plateau EPS/Multisports/city-stades"},{"name":"College H. Dunant","address":"29 Rue Henri Dunant Quartier Mazurieres Fouilleuse","postal_code":"92063","city":"Rueil-Malmaison","department":"Hauts-de-Seine","long":2.193257,"lat":48.865443,"coating":"Bitume","open":false,"type":"Plateau EPS/Multisports/city-stades"},{"name":"Gymnase Condorcet","address":"35 Rue Daniele Casanova","postal_code":"94046","city":"Maisons-Alfort","department":"Val-de-Marne","long":2.456419,"lat":48.808459,"coating":"Synthétique (hors gazon)","open":false,"type":"Salle multisports"},{"name":"College Pierre Mendes France","address":"24 Rue Le Vau","postal_code":"75056","city":"Paris","department":"Paris","long":2.411032,"lat":48.869098,"coating":"Bitume","open":false,"type":"Terrain de basket-ball"},{"name":"Complexe Lucien Morane","address":"4 Rue Du Stade","postal_code":"77373","city":"Pontault-Combault","department":"Seine-et-Marne","long":2.60543,"lat":48.80413,"coating":"Bitume","open":false,"type":"Plateau EPS/Multisports/city-stades"},{"name":"Plateau Multisports","address":"564 Grande Rue","postal_code":"78163","city":"Civry-la-Forêt","department":"Yvelines","long":1.61511,"lat":48.86701,"coating":"Bitume","open":false,"type":"Plateau EPS/Multisports/city-stades"},{"name":"Lycee Montalembert","address":"28 Boulevard Gambetta","postal_code":"94052","city":"Nogent-sur-Marne","department":"Val-de-Marne","long":2.471934,"lat":48.838213,"coating":"Synthétique (hors gazon)","open":false,"type":"Salle multisports"},{"name":"Stade Leo Lagrange","address":"20 Avenue Anatole France","postal_code":"93057","city":"Pavillons-sous-Bois","department":"Seine-Saint-Denis","long":2.49917,"lat":48.89718,"coating":"Bitume","open":false,"type":"Terrain de handball"},{"name":"Jardin Henri Et Achille Duchene","address":"160 Rue Vercingetorix","postal_code":"75056","city":"Paris","department":"Paris","long":2.30994,"lat":48.83204,"coating":"Synthétique (hors gazon)","open":false,"type":"Plateau EPS/Multisports/city-stades"},{"name":"Parc Des Glacieres","address":"34 Rue Nationale","postal_code":"92012","city":"Boulogne-Billancourt","department":"Hauts-de-Seine","long":2.2414300000000003,"lat":48.82829,"coating":"Bitume","open":false,"type":"Terrain de basket-ball"},{"name":"Jardin Villemin","address":"6 Avenue de Verdun","postal_code":"75056","city":"Paris","department":"Paris","long":2.362,"lat":48.87557,"coating":"Béton","open":false,"type":"Plateau EPS/Multisports/city-stades"},{"name":"Tep Jenner","address":"47 Rue Jenner","postal_code":"75056","city":"Paris","department":"Paris","long":2.36089,"lat":48.83576,"coating":"Synthétique (hors gazon)","open":false,"type":"Plateau EPS/Multisports/city-stades"},{"name":"Centre Sportif Pierre de Coubertin","address":"122 Avenue de L'Europe","postal_code":"77152","city":"Dammarie-les-Lys","department":"Seine-et-Marne","long":2.63301,"lat":48.52003,"coating":"Synthétique (hors gazon)","open":false,"type":"Salle multisports"},{"name":"Gymnase de L'Ingénieur Keller","address":"16 Rue de L'Ingenieur Keller","postal_code":"75056","city":"Paris","department":"Paris","long":2.2827,"lat":48.8477,"coating":"Synthétique (hors gazon)","open":false,"type":"Salle multisports"},{"name":"Complexe Sportif Jean Jaures","address":"2 Rue Jean Jaures","postal_code":"92022","city":"Chaville","department":"Hauts-de-Seine","long":2.18753,"lat":48.79827,"coating":"Synthétique (hors gazon)","open":false,"type":"Salle multisports"},{"name":"Gymnase de L'Eglise Americaine","address":"65 Quai D'Orsay","postal_code":"75056","city":"Paris","department":"Paris","long":2.30633,"lat":48.86235,"coating":"Parquet","open":false,"type":"Salle multisports"},{"name":"Tep de La Vilette","address":"19 Bd de La Vilette","postal_code":"75056","city":"Paris","department":"Paris","long":2.375644,"lat":48.873164,"coating":"Synthétique (hors gazon)","open":false,"type":"Plateau EPS/Multisports/city-stades"},{"name":"Centre Sportif Sablonnière","address":"62 Rue Cambronne","postal_code":"75056","city":"Paris","department":"Paris","long":2.31131,"lat":48.8446,"coating":"Synthétique (hors gazon)","open":false,"type":"Plateau EPS/Multisports/city-stades"},{"name":"Gymnase Maurice Baquet","address":"42953 Rue D'Estienne D'Orves","postal_code":"93055","city":"Pantin","department":"Seine-Saint-Denis","long":2.40639,"lat":48.89081,"coating":"Synthétique (hors gazon)","open":false,"type":"Salle multisports"},{"name":"Gymnase Du Fort","address":"33 Avenue Du Fort","postal_code":"94071","city":"Sucy-en-Brie","department":"Val-de-Marne","long":2.53348,"lat":48.76969,"coating":"Synthétique (hors gazon)","open":false,"type":"Salle multisports"},{"name":"Place de L'Orangerie","address":"7 Rue de La Source","postal_code":"91461","city":"Ollainville","department":"Essonne","long":2.21836,"lat":48.594,"coating":"Synthétique (hors gazon)","open":false,"type":"Plateau EPS/Multisports/city-stades"},{"name":"Stade Rene Rousseau","address":"48 Rue Jules Ferry","postal_code":"94017","city":"Champigny-sur-Marne","department":"Val-de-Marne","long":2.4976279999999997,"lat":48.820637,"coating":"Bitume","open":false,"type":"Plateau EPS/Multisports/city-stades"},{"name":"Lycee Carnot","address":"145 Boulevard Malesherbes","postal_code":"75056","city":"Paris","department":"Paris","long":2.3069100000000002,"lat":48.888,"coating":"Bitume","open":false,"type":"Terrain de basket-ball"},{"name":"College Prive Sainte Marie","address":"4 Avenue Marcel Cachin","postal_code":"93072","city":"Stains","department":"Seine-Saint-Denis","long":2.38408,"lat":48.95615,"coating":"Synthétique (hors gazon)","open":false,"type":"Salle multisports"},{"name":"Lycee Saint Nicolas","address":"92 Rue de Vaugirard","postal_code":"75056","city":"Paris","department":"Paris","long":2.32582,"lat":48.84679,"coating":"Synthétique (hors gazon)","open":false,"type":"Salle multisports"},{"name":"Mille Club","address":"16 Rue Des Ecoles","postal_code":"77528","city":"Voisenon","department":"Seine-et-Marne","long":2.66205,"lat":48.5705,"coating":"Bitume","open":false,"type":"Terrain de basket-ball"},{"name":"Clsh de L'Ile Aux Enfants","address":"4 Place Thomas Le Pilleur","postal_code":"77449","city":"Serris","department":"Seine-et-Marne","long":2.78155,"lat":48.844545,"coating":"Bitume","open":false,"type":"Plateau EPS/Multisports/city-stades"},{"name":"College Marie Curie","address":"21 Rue Boinod","postal_code":"75056","city":"Paris","department":"Paris","long":2.35764,"lat":48.8934,"coating":"Synthétique (hors gazon)","open":false,"type":"Salle multisports"},{"name":"College Pierre Curie","address":"166 Boulevard Paul Vaillant Couturier","postal_code":"95280","city":"Goussainville","department":"Val-d'Oise","long":2.47873,"lat":49.0386,"coating":"Béton","open":false,"type":"Terrain de basket-ball"},{"name":"Parc de La Mairie","address":"6 Rue Piver","postal_code":"91326","city":"Juvisy-sur-Orge","department":"Essonne","long":2.37221,"lat":48.69178,"coating":"Bitume","open":false,"type":"Plateau EPS/Multisports/city-stades"},{"name":"Complexe Sportif Champs Dauphin - Scpo","address":"4 Rue Ernest Renan","postal_code":"94041","city":"Ivry-sur-Seine","department":"Val-de-Marne","long":2.39736,"lat":48.81121,"coating":"Synthétique (hors gazon)","open":false,"type":"Salle multisports"},{"name":"College Igbal Masih","address":"6 Rue Jeumont","postal_code":"93066","city":"Saint-Denis","department":"Seine-Saint-Denis","long":2.36091,"lat":48.9123,"coating":"Bitume","open":false,"type":"Plateau EPS/Multisports/city-stades"},{"name":"Gymnase Moulin A Vent","address":"18 Avenue Du Moulin A Vent","postal_code":"94019","city":"Chennevières-sur-Marne","department":"Val-de-Marne","long":2.525007,"lat":48.78412,"coating":"Bitume","open":false,"type":"Terrain de basket-ball"},{"name":"College Anne Franck","address":"112 Rue Adolphe Pajeaud","postal_code":"92002","city":"Antony","department":"Hauts-de-Seine","long":2.28604,"lat":48.74352,"coating":"Synthétique (hors gazon)","open":false,"type":"Salle multisports"},{"name":"Gymnase Des Sablons","address":"44 Rue Des Sablons","postal_code":"77438","city":"Saint-Thibault-des-Vignes","department":"Seine-et-Marne","long":2.67155,"lat":48.85753,"coating":"Synthétique (hors gazon)","open":false,"type":"Salle multisports"},{"name":"Stade Et Gymnase René Huard","address":"11 Rue Du Stade","postal_code":"77389","city":"Rochette","department":"Seine-et-Marne","long":2.66163,"lat":48.5043,"coating":"Béton","open":false,"type":"Terrain de basket-ball"},{"name":"Centre Sportif Jules Ladoumegue","address":"39 Route Des Petits Ponts","postal_code":"75056","city":"Paris","department":"Paris","long":2.39584,"lat":48.8944,"coating":"Synthétique (hors gazon)","open":false,"type":"Plateau EPS/Multisports/city-stades"},{"name":"Stadium de Reuil Malmaison","address":"1 Rue Gennevieve Couturier","postal_code":"92063","city":"Rueil-Malmaison","department":"Hauts-de-Seine","long":2.17528,"lat":48.8799,"coating":"Bitume","open":false,"type":"Terrain de basket-ball"},{"name":"Centre International de Sejour Du Bois Du Lys","address":"380 Chemin Du Clocher","postal_code":"77152","city":"Dammarie-les-Lys","department":"Seine-et-Marne","long":2.63531,"lat":48.50647,"coating":"Parquet","open":false,"type":"Salle multisports"},{"name":"Gymnase Tandou","address":"11 Rue Tandou","postal_code":"75056","city":"Paris","department":"Paris","long":2.38027,"lat":48.8863,"coating":"Parquet","open":false,"type":"Salle multisports"},{"name":"Groupe Scolaire Rosalind Franklin","address":"64 Avenue Jean Jaures","postal_code":"94041","city":"Ivry-sur-Seine","department":"Val-de-Marne","long":2.40363,"lat":48.80895,"coating":"Synthétique (hors gazon)","open":false,"type":"Salle multisports"},{"name":"Gymnase Raymond Lemaitre","address":"27 Avenue D'Enghien","postal_code":"93031","city":"Épinay-sur-Seine","department":"Seine-Saint-Denis","long":2.30835,"lat":48.95905,"coating":"Synthétique (hors gazon)","open":false,"type":"Salle multisports"},{"name":"Gymnase Henri Arles","address":"11 Rue Auguste Delaune","postal_code":"94011","city":"Bonneuil-sur-Marne","department":"Val-de-Marne","long":2.485417,"lat":48.763137,"coating":"Synthétique (hors gazon)","open":false,"type":"Salle multisports"},{"name":"Lycee Turgot","address":"69 Rue de Turbigo","postal_code":"75056","city":"Paris","department":"Paris","long":2.35871,"lat":48.86637,"coating":"Synthétique (hors gazon)","open":false,"type":"Salle multisports"},{"name":"Plateau Polyvalent","address":"3 Rue de L'Ecole","postal_code":"77416","city":"Saint-Just-en-Brie","department":"Seine-et-Marne","long":3.11721,"lat":48.61281,"coating":"Béton","open":false,"type":"Plateau EPS/Multisports/city-stades"},{"name":"Ecole Nationale Ponts Et Chaussees","address":"8 Avenue Blaise Pascal","postal_code":"77083","city":"Champs-sur-Marne","department":"Seine-et-Marne","long":2.58815,"lat":48.8412,"coating":"Synthétique (hors gazon)","open":false,"type":"Terrain de basket-ball"},{"name":"Gymnase Des Cent Gardes","address":"45 Grande Rue","postal_code":"92072","city":"Sèvres","department":"Hauts-de-Seine","long":2.217585,"lat":48.82574,"coating":"Synthétique (hors gazon)","open":false,"type":"Salle multisports"},{"name":"Gymnase El-Ouafi","address":"5 Rue de La Sente de La Souche","postal_code":"93027","city":"Courneuve","department":"Seine-Saint-Denis","long":2.3885,"lat":48.92893,"coating":"Synthétique (hors gazon)","open":false,"type":"Salle multisports"},{"name":"Plateau D'Évolution","address":"4 Rue Du Pont Paillard","postal_code":"77034","city":"Blandy","department":"Seine-et-Marne","long":2.782464,"lat":48.56928,"coating":"Bitume","open":false,"type":"Plateau EPS/Multisports/city-stades"},{"name":"Gymnase Paul de Benedetti","address":"27 Rue Des Laitieres","postal_code":"94080","city":"Vincennes","department":"Val-de-Marne","long":2.423473,"lat":48.846665,"coating":"Synthétique (hors gazon)","open":false,"type":"Salle multisports"},{"name":"Gymnase Boissiere","address":"171 Boulevard Aristide Briand","postal_code":"93048","city":"Montreuil","department":"Seine-Saint-Denis","long":2.45429,"lat":48.8747,"coating":"Bitume","open":false,"type":"Plateau EPS/Multisports/city-stades"},{"name":"Gymnase de La Vallee Aux Renards","address":"22 Rue Leon Blum","postal_code":"94038","city":"Haÿ-les-Roses","department":"Val-de-Marne","long":2.32327,"lat":48.76469,"coating":"Béton","open":false,"type":"Salle multisports"},{"name":"Centre Municipal de Loisirs","address":"49 Rue Division Leclerc","postal_code":"91587","city":"Saulx-les-Chartreux","department":"Essonne","long":2.26613,"lat":48.69107,"coating":"Bitume","open":false,"type":"Plateau EPS/Multisports/city-stades"},{"name":"Parc Montsouris","address":"28 Boulevard Jourdan","postal_code":"75056","city":"Paris","department":"Paris","long":2.33987,"lat":48.82055,"coating":"Synthétique (hors gazon)","open":false,"type":"Plateau EPS/Multisports/city-stades"},{"name":"Centre Sportif Du Docteur Bourneville Kellermann","address":"5 Rue Du Docteur Bourneville","postal_code":"75056","city":"Paris","department":"Paris","long":2.3566700000000003,"lat":48.81848,"coating":"Bitume","open":false,"type":"Terrain de basket-ball"},{"name":"Cite Scolaire Helene Boucher","address":"75 Cours de Vincennes","postal_code":"75056","city":"Paris","department":"Paris","long":2.40712,"lat":48.8477,"coating":"Bitume","open":false,"type":"Plateau EPS/Multisports/city-stades"},{"name":"Velodrome","address":"43 Avenue de Stalingrad","postal_code":"93066","city":"Saint-Denis","department":"Seine-Saint-Denis","long":2.36809,"lat":48.94676,"coating":"Bitume","open":false,"type":"Plateau EPS/Multisports/city-stades"},{"name":"Gymnase Bretagne","address":"1 Rue de Bretagne","postal_code":"92023","city":"Clamart","department":"Hauts-de-Seine","long":2.24485,"lat":48.78355,"coating":"Surface naturelle","open":false,"type":"Plateau EPS/Multisports/city-stades"},{"name":"Gymnase Pascal Tabanelli","address":"11 Rue de Musselburgh","postal_code":"94017","city":"Champigny-sur-Marne","department":"Val-de-Marne","long":2.514523,"lat":48.811903,"coating":"Parquet","open":false,"type":"Salle multisports"},{"name":"Gymnase Maurice Cordesse - College Henri Barbusse","address":"8 Rue Pelletan","postal_code":"94002","city":"Alfortville","department":"Val-de-Marne","long":2.416461,"lat":48.813495,"coating":"Synthétique (hors gazon)","open":false,"type":"Salle multisports"},{"name":"Square Repine","address":"4 Rue Felix Huguenet","postal_code":"75056","city":"Paris","department":"Paris","long":2.40457,"lat":48.8485,"coating":"Bitume","open":false,"type":"Plateau EPS/Multisports/city-stades"},{"name":"Palais Des Sports Auguste Delaune","address":"9 Avenue Roger Semat","postal_code":"93066","city":"Saint-Denis","department":"Seine-Saint-Denis","long":2.35705,"lat":48.94664,"coating":"Synthétique (hors gazon)","open":false,"type":"Pas de tir à l'arc"},{"name":"Terrains de Proximite Rue de Soisy","address":"2 Rue de Soisy","postal_code":"91174","city":"Corbeil-Essonnes","department":"Essonne","long":2.482461,"lat":48.61794,"coating":"Béton","open":false,"type":"Plateau EPS/Multisports/city-stades"},{"name":"Parc Departemental Du Plateau","address":"76 Rue de Bernau","postal_code":"94017","city":"Champigny-sur-Marne","department":"Val-de-Marne","long":2.529175,"lat":48.815769,"coating":"Bitume","open":false,"type":"Plateau EPS/Multisports/city-stades"},{"name":"Us Metro Croix de Berny","address":"10 Avenue Raymond Aron","postal_code":"92002","city":"Antony","department":"Hauts-de-Seine","long":2.31144,"lat":48.76667,"coating":"Synthétique (hors gazon)","open":false,"type":"Salle multisports"},{"name":"Parc Maurice Thorez Et Gymnase Leo Lagrange","address":"27 Boulevard Des Allies","postal_code":"94022","city":"Choisy-le-Roi","department":"Val-de-Marne","long":2.401049,"lat":48.765282,"coating":"Synthétique (hors gazon)","open":false,"type":"Plateau EPS/Multisports/city-stades"},{"name":"Square Marcel Sembat","address":"2 Rue Marcel Sembat","postal_code":"75056","city":"Paris","department":"Paris","long":2.33857,"lat":48.8989,"coating":"Synthétique (hors gazon)","open":false,"type":"Plateau EPS/Multisports/city-stades"},{"name":"Gymnase Des Sablons","address":"80 Avenue de Verdun","postal_code":"92020","city":"Châtillon","department":"Hauts-de-Seine","long":2.28155,"lat":48.7992,"coating":"Synthétique (hors gazon)","open":false,"type":"Salle multisports"},{"name":"Gymnase Charonne Planchat","address":"20 Rue de Monte Cristo","postal_code":"75056","city":"Paris","department":"Paris","long":2.397804,"lat":48.855713,"coating":"Synthétique (hors gazon)","open":false,"type":"Salle multisports"},{"name":"Paris Country Club","address":"121 Rue Du Lieutenant Colonel de Montbrison","postal_code":"92063","city":"Rueil-Malmaison","department":"Hauts-de-Seine","long":2.197582,"lat":48.861383000000004,"coating":"Synthétique (hors gazon)","open":false,"type":"Salle multisports"},{"name":"Ecole Active Bilingue Jeanine Manuel","address":"70 Rue Du Theatre","postal_code":"75056","city":"Paris","department":"Paris","long":2.29114,"lat":48.8477,"coating":"Synthétique (hors gazon)","open":false,"type":"Salle multisports"},{"name":"Jardin de L'Europe","address":"62 Avenue Du President J. F.","postal_code":"78481","city":"Pecq","department":"Yvelines","long":2.09616,"lat":48.87874,"coating":"Gazon synthétique","open":false,"type":"Plateau EPS/Multisports/city-stades"},{"name":"Stade Paul Montay-Marx Dormoy","address":"60 Avenue Max Dormoy","postal_code":"92049","city":"Montrouge","department":"Hauts-de-Seine","long":2.320709,"lat":48.811021,"coating":"Béton","open":false,"type":"Court de tennis"},{"name":"Tep Louis Braille","address":"24 Rue Louis Braille","postal_code":"75056","city":"Paris","department":"Paris","long":2.40312,"lat":48.83938,"coating":"Bitume","open":false,"type":"Plateau EPS/Multisports/city-stades"},{"name":"Restaurant Interentreprise Des Beaux Soleils","address":"20 Rue Des Beaux Soleils","postal_code":"95476","city":"Osny","department":"Val-d'Oise","long":2.06954,"lat":49.0545,"coating":"Synthétique (hors gazon)","open":false,"type":"Salle multisports"},{"name":"Gymnase (Prés Du Collège Jean Des Barres)","address":"50 Rue Raperie","postal_code":"77344","city":"Oissery","department":"Seine-et-Marne","long":2.8116700000000003,"lat":49.07212,"coating":"Synthétique (hors gazon)","open":false,"type":"Salle multisports"},{"name":"Complexe Jean Corlin","address":"17 Chemin de La Remise","postal_code":"93015","city":"Coubron","department":"Seine-Saint-Denis","long":2.58495,"lat":48.91309,"coating":"Synthétique (hors gazon)","open":false,"type":"Salle multisports"},{"name":"Gymnase Curial","address":"84 Rue Curial","postal_code":"75056","city":"Paris","department":"Paris","long":2.37472,"lat":48.895,"coating":"Parquet","open":false,"type":"Salle multisports"},{"name":"Gymnase Felix Merlin","address":"41 Rue Félix Merlin","postal_code":"93031","city":"Épinay-sur-Seine","department":"Seine-Saint-Denis","long":2.29892,"lat":48.95553,"coating":"Synthétique (hors gazon)","open":false,"type":"Salle multisports"},{"name":"Tep Jean Pierre Wimille","address":"56 Boulevard de L'Amiral Bruix","postal_code":"75056","city":"Paris","department":"Paris","long":2.27631,"lat":48.87341,"coating":"Synthétique (hors gazon)","open":false,"type":"Plateau EPS/Multisports/city-stades"},{"name":"City Stade Des Tarterets","address":"3 Rue Gustave Courbet","postal_code":"91174","city":"Corbeil-Essonnes","department":"Essonne","long":2.469686,"lat":48.6151602,"coating":"Synthétique (hors gazon)","open":false,"type":"Plateau EPS/Multisports/city-stades"},{"name":"Les Pyramides","address":"16 Avenue de Saint Germain","postal_code":"78502","city":"Port-Marly","department":"Yvelines","long":2.10921,"lat":48.8858,"coating":"Synthétique (hors gazon)","open":false,"type":"Salle multisports"},{"name":"Lycee Professionnel Et Technologique Sainte Therese","address":"40 Rue La Fontaine","postal_code":"75056","city":"Paris","department":"Paris","long":2.27035,"lat":48.852,"coating":"Synthétique (hors gazon)","open":false,"type":"Plateau EPS/Multisports/city-stades"},{"name":"Gymnase Rene Rousselle","address":"700 Rue Des Lacs","postal_code":"77285","city":"Mée-sur-Seine","department":"Seine-et-Marne","long":2.62243,"lat":48.54204,"coating":"Synthétique (hors gazon)","open":false,"type":"Salle multisports"},{"name":"Stade Alain Mimoun","address":"38 Bis Allée Des Deux Communes","postal_code":"93077","city":"Villemomble","department":"Seine-Saint-Denis","long":2.4893,"lat":48.88831,"coating":"Béton","open":false,"type":"Plateau EPS/Multisports/city-stades"},{"name":"Ecole Du Batiment Et Travaux Publics","address":"35 Rue Mirabeau","postal_code":"94080","city":"Vincennes","department":"Val-de-Marne","long":2.436332,"lat":48.852593,"coating":"Synthétique (hors gazon)","open":false,"type":"Salle multisports"},{"name":"Ensemble Sportif Maurice Preault","address":"16 Avenue Charles de Gaulle","postal_code":"94004","city":"Boissy-Saint-Léger","department":"Val-de-Marne","long":2.497292,"lat":48.758797,"coating":"Béton","open":false,"type":"Terrain de basket-ball"},{"name":"Lycee Jules Ferry","address":"77 Boulevard de Clichy","postal_code":"75056","city":"Paris","department":"Paris","long":2.32957,"lat":48.88397,"coating":"Bitume","open":false,"type":"Plateau EPS/Multisports/city-stades"},{"name":"Gymnase Des Patriarches","address":"6 Place Bernard Halpern","postal_code":"75056","city":"Paris","department":"Paris","long":2.35083,"lat":48.84058,"coating":"Synthétique (hors gazon)","open":false,"type":"Salle multisports"},{"name":"Gymnase Leo Lagrange","address":"68 Rue Eugene Martin","postal_code":"94033","city":"Fontenay-sous-Bois","department":"Val-de-Marne","long":2.459691,"lat":48.850983,"coating":"Synthétique (hors gazon)","open":false,"type":"Salle multisports"},{"name":"Gymnase Pierre de Coubertin","address":"31 Boulevard Du Midi","postal_code":"92050","city":"Nanterre","department":"Hauts-de-Seine","long":2.192107,"lat":48.890934,"coating":"Synthétique (hors gazon)","open":false,"type":"Salle multisports"},{"name":"Stade Municipal","address":"2 Rue de La Porte de Paris","postal_code":"91411","city":"Molières","department":"Essonne","long":2.07284,"lat":48.6789,"coating":"Bitume","open":false,"type":"Plateau EPS/Multisports/city-stades"},{"name":"Espace Educatif Et Sportif Maurice Houyoux (Le Stade Municipale)","address":"9 Rue Roger Salengro","postal_code":"93013","city":"Bourget","department":"Seine-Saint-Denis","long":2.42045,"lat":48.93759,"coating":"Bitume","open":false,"type":"Plateau EPS/Multisports/city-stades"},{"name":"Terrain Multisports Danton","address":"145 Grande Rue","postal_code":"92072","city":"Sèvres","department":"Hauts-de-Seine","long":2.20246,"lat":48.8207,"coating":"Synthétique (hors gazon)","open":false,"type":"Plateau EPS/Multisports/city-stades"},{"name":"Stade Fernand Sastre","address":"50 Avenue Raspail","postal_code":"94068","city":"Saint-Maur-des-Fossés","department":"Val-de-Marne","long":2.488418,"lat":48.785789,"coating":"Bitume","open":false,"type":"Plateau EPS/Multisports/city-stades"},{"name":"Complexe Sportif Maurice Solleret","address":"61 Rue de Chanteloup","postal_code":"78624","city":"Triel-sur-Seine","department":"Yvelines","long":2.017249,"lat":48.97602,"coating":"Synthétique (hors gazon)","open":false,"type":"Salle multisports"},{"name":"Gymnase Mehy","address":"60 Rue Henri Corvol","postal_code":"94022","city":"Choisy-le-Roi","department":"Val-de-Marne","long":2.424972,"lat":48.762608,"coating":"Synthétique (hors gazon)","open":false,"type":"Plateau EPS/Multisports/city-stades"},{"name":"Parc Heller","address":"12 Rue Prosper Legoute","postal_code":"92002","city":"Antony","department":"Hauts-de-Seine","long":2.28661,"lat":48.74627,"coating":"Bitume","open":false,"type":"Terrain de basket-ball"},{"name":"College Francois Villon","address":"1 Rue Maurice Nogues","postal_code":"75056","city":"Paris","department":"Paris","long":2.30514,"lat":48.82512,"coating":"Parquet","open":false,"type":"Salle multisports"},{"name":"Palais Des Sports","address":"4 Avenue Marx Dormoy","postal_code":"93010","city":"Bondy","department":"Seine-Saint-Denis","long":2.48239,"lat":48.91114,"coating":"Synthétique (hors gazon)","open":false,"type":"Salle de basket"},{"name":"Stade Hebert","address":"79 Avenue de La Liberte","postal_code":"94046","city":"Maisons-Alfort","department":"Val-de-Marne","long":2.434693,"lat":48.787322,"coating":"Béton","open":false,"type":"Salle multisports"},{"name":"Terrain Farman","address":"166 Rue de Billancourt","postal_code":"92012","city":"Boulogne-Billancourt","department":"Hauts-de-Seine","long":2.23683,"lat":48.83347,"coating":"Synthétique (hors gazon)","open":false,"type":"Plateau EPS/Multisports/city-stades"},{"name":"Complexe Sportif Europe","address":"2 Rue de Varsovie","postal_code":"78208","city":"Élancourt","department":"Yvelines","long":1.9672800000000001,"lat":48.79185,"coating":"Bitume","open":false,"type":"Plateau EPS/Multisports/city-stades"},{"name":"Complexe Sportif Antonin Magne","address":"34 Rue Suzanne-Masson","postal_code":"93027","city":"Courneuve","department":"Seine-Saint-Denis","long":2.3871700000000002,"lat":48.92329,"coating":"Synthétique (hors gazon)","open":false,"type":"Salle multisports"},{"name":"College Georges Rouault","address":"3 Rue Du Noyer Durand","postal_code":"75056","city":"Paris","department":"Paris","long":2.39858,"lat":48.8863,"coating":"Bitume","open":false,"type":"Plateau EPS/Multisports/city-stades"},{"name":"Complexe Romain Rolland","address":"56 Rue Des Blancs Vilains","postal_code":"93048","city":"Montreuil","department":"Seine-Saint-Denis","long":2.47563,"lat":48.86668,"coating":"Béton","open":false,"type":"Salle multisports"},{"name":"Tep Amandiers","address":"21 Rue Des Cendriers","postal_code":"75056","city":"Paris","department":"Paris","long":2.38658,"lat":48.86558,"coating":"Synthétique (hors gazon)","open":false,"type":"Plateau EPS/Multisports/city-stades"},{"name":"Creps Ile de France - Site de Chatenay-Malabry","address":"1 Rue Du Docteur Le Savoureux","postal_code":"92019","city":"Châtenay-Malabry","department":"Hauts-de-Seine","long":2.2727500000000003,"lat":48.76452,"coating":"Parquet","open":false,"type":"Salle multisports"},{"name":"Stade Municipal Tom Vantheemche","address":"45 Rue de La Liberation","postal_code":"78003","city":"Ablis","department":"Yvelines","long":1.83506,"lat":48.51143,"coating":"Bitume","open":false,"type":"Terrain de basket-ball"},{"name":"Parc Forestier Tronchet","address":"11 Avenue Du General Leclerc","postal_code":"92048","city":"Meudon","department":"Hauts-de-Seine","long":2.22351,"lat":48.7911,"coating":"Bitume","open":false,"type":"Terrain de basket-ball"},{"name":"Terrain de Proximité Avenue Division Leclerc","address":"38 Avenue de La Division Leclerc","postal_code":"93055","city":"Pantin","department":"Seine-Saint-Denis","long":2.4072151,"lat":48.9138402,"coating":"Bitume","open":false,"type":"Plateau EPS/Multisports/city-stades"},{"name":"Lycee Professionnel Florian","address":"9 Bis Rue de La Marne","postal_code":"92071","city":"Sceaux","department":"Hauts-de-Seine","long":2.30422,"lat":48.781595,"coating":"Synthétique (hors gazon)","open":false,"type":"Salle multisports"},{"name":"Gymnase D'Amboile","address":"32 Rue de L'Ancien Moulin","postal_code":"94055","city":"Ormesson-sur-Marne","department":"Val-de-Marne","long":2.53334,"lat":48.77908,"coating":"Synthétique (hors gazon)","open":false,"type":"Salle multisports"},{"name":"Preau Sports Grand-Vaux","address":"1 Rue Matisse","postal_code":"91589","city":"Savigny-sur-Orge","department":"Essonne","long":2.33909,"lat":48.67269,"coating":"Bitume","open":false,"type":"Plateau EPS/Multisports/city-stades"},{"name":"Lycee Romain Rolland","address":"21 Avenue de Montmorency","postal_code":"95280","city":"Goussainville","department":"Val-d'Oise","long":2.453191,"lat":49.0299597,"coating":"Bitume","open":false,"type":"Terrain de basket-ball"},{"name":"College Sainte Ursule - Louise de Bettignies","address":"102 Boulevard Pereire","postal_code":"75056","city":"Paris","department":"Paris","long":2.299,"lat":48.88675,"coating":"Béton","open":false,"type":"Salle multisports"},{"name":"Groupe Scolaire Henri Wallon","address":"20 Rue Savigny","postal_code":"91434","city":"Morsang-sur-Orge","department":"Essonne","long":2.3522,"lat":48.66925,"coating":"Synthétique (hors gazon)","open":false,"type":"Plateau EPS/Multisports/city-stades"},{"name":"Gymnase Marcel Cerdan","address":"37 Rue Avaulee","postal_code":"92046","city":"Malakoff","department":"Hauts-de-Seine","long":2.289988,"lat":48.814951,"coating":"Parquet","open":false,"type":"Salle multisports"},{"name":"Gymnase Pierre Scohy","address":"1 Rue Aristide Briand","postal_code":"93005","city":"Aulnay-sous-Bois","department":"Seine-Saint-Denis","long":2.49615,"lat":48.93946,"coating":"Synthétique (hors gazon)","open":false,"type":"Salle multisports"},{"name":"Salle Polyvalente","address":"12 Rue Des Jardins","postal_code":"95488","city":"Pierrelaye","department":"Val-d'Oise","long":2.15687,"lat":49.02164,"coating":"Parquet","open":false,"type":"Salles polyvalentes / des fêtes / non spécialisées"},{"name":"Lycee Professionnel Chateau Des Coudraies","address":"2 Boulevard Du General de Gaulle","postal_code":"91225","city":"Étiolles","department":"Essonne","long":2.46448,"lat":48.63405,"coating":"Synthétique (hors gazon)","open":false,"type":"Salle multisports"},{"name":"Ecole Boileau","address":"7 Rue Boileau","postal_code":"92049","city":"Montrouge","department":"Hauts-de-Seine","long":2.318382,"lat":48.811687,"coating":"Bitume","open":false,"type":"Plateau EPS/Multisports/city-stades"},{"name":"Lycee Rosa Parks","address":"2 Place de L'Europe","postal_code":"91421","city":"Montgeron","department":"Essonne","long":2.45184,"lat":48.7085,"coating":"Béton","open":false,"type":"Salles polyvalentes / des fêtes / non spécialisées"},{"name":"Gymnase Gerard Henri","address":"20 Rue Monte Cristo","postal_code":"75056","city":"Paris","department":"Paris","long":2.39792,"lat":48.8555,"coating":"Synthétique (hors gazon)","open":false,"type":"Salle multisports"},{"name":"Stade Municipal","address":"38 Rue Du Parc","postal_code":"95543","city":"Saint-Cyr-en-Arthies","department":"Val-d'Oise","long":1.745652,"lat":49.060123,"coating":"Gazon naturel","open":false,"type":"Plateau EPS/Multisports/city-stades"},{"name":"Plateau D'Evolution Henri Wallon","address":"3 Place Danton","postal_code":"94041","city":"Ivry-sur-Seine","department":"Val-de-Marne","long":2.38125,"lat":48.81372,"coating":"Bitume","open":false,"type":"Plateau EPS/Multisports/city-stades"},{"name":"Centre D'Animation Wangari Muta Maathai","address":"13-15 Rue Mouraud","postal_code":"75056","city":"Paris","department":"Paris","long":2.407293,"lat":48.855131,"coating":"Bitume","open":false,"type":"Terrain de basket-ball"},{"name":"Centre Aquanautique Camille Muffat","address":"18 Mail Jean-Pierre Timbaud","postal_code":"93064","city":"Rosny-sous-Bois","department":"Seine-Saint-Denis","long":2.48229,"lat":48.87247,"coating":"Parquet","open":false,"type":"Salle multisports"},{"name":"Gymnase Jean Jaures","address":"12 Boulevard Jean Jaurès","postal_code":"93045","city":"Lilas","department":"Seine-Saint-Denis","long":2.42387,"lat":48.88751,"coating":"Synthétique (hors gazon)","open":false,"type":"Salle multisports"},{"name":"Gymnase Des Pompiers","address":"2 Place Orloff","postal_code":"77186","city":"Fontainebleau","department":"Seine-et-Marne","long":2.7119400000000002,"lat":48.41323,"coating":"Synthétique (hors gazon)","open":false,"type":"Salle multisports"},{"name":"Salle Olympie","address":"8 Ruelle Du Parc","postal_code":"91333","city":"Leuville-sur-Orge","department":"Essonne","long":2.26173,"lat":48.61723,"coating":"Synthétique (hors gazon)","open":false,"type":"Salle multisports"},{"name":"Gymnase de L'Ecole Nationale Du Tresor Public","address":"37 Grande Allee 12 Fevrier 34","postal_code":"77337","city":"Noisiel","department":"Seine-et-Marne","long":2.62071,"lat":48.84275,"coating":"Synthétique (hors gazon)","open":false,"type":"Salle multisports"},{"name":"Groupe Scolaire Jean Jaures","address":"200 Avenue de Stalingrad","postal_code":"95268","city":"Garges-lès-Gonesse","department":"Val-d'Oise","long":2.41504,"lat":48.97078,"coating":"Bitume","open":false,"type":"Plateau EPS/Multisports/city-stades"},{"name":"Gymnase Pasteur","address":"30 Avenue de Circourt","postal_code":"78126","city":"Celle-Saint-Cloud","department":"Yvelines","long":2.14552,"lat":48.85007,"coating":"Synthétique (hors gazon)","open":false,"type":"Salle multisports"},{"name":"Gymnase Evry 1 - Bonaparte","address":"206 Rue Bonaparte","postal_code":"91228","city":"Évry","department":"Essonne","long":2.4277100000000003,"lat":48.6335,"coating":"Synthétique (hors gazon)","open":false,"type":"Salle multisports"},{"name":"Gymnase Jacqueline Auriol","address":"14 Rue Paul-Adolphe Souriau","postal_code":"92012","city":"Boulogne-Billancourt","department":"Hauts-de-Seine","long":2.24785,"lat":48.83636,"coating":"Synthétique (hors gazon)","open":false,"type":"Salle multisports"},{"name":"Gymnase Macdonald","address":"147 Boulevard Macdonald","postal_code":"75056","city":"Paris","department":"Paris","long":2.3790459999999998,"lat":48.898838,"coating":"","open":false,"type":"Salle multisports"},{"name":"Gymnase Regis Racine","address":"20 Rue Louis Delplace","postal_code":"93029","city":"Drancy","department":"Seine-Saint-Denis","long":2.441384,"lat":48.920159,"coating":"Parquet","open":false,"type":"Salle multisports"},{"name":"College Theophile Gautier","address":"39 Rue de Longchamp","postal_code":"92051","city":"Neuilly-sur-Seine","department":"Hauts-de-Seine","long":2.2558555,"lat":48.8826006,"coating":"Synthétique (hors gazon)","open":false,"type":"Salle multisports"},{"name":"Salle Polyvalente Sportive","address":"5 Rue de L'Eglise","postal_code":"77095","city":"Charny","department":"Seine-et-Marne","long":2.76038,"lat":48.9713,"coating":"Béton","open":false,"type":"Salle multisports"},{"name":"Piscine Municipale Et Gymnase de La Piscine","address":"91 Avenue Henri Ginoux","postal_code":"92049","city":"Montrouge","department":"Hauts-de-Seine","long":2.321055,"lat":48.815286,"coating":"Synthétique (hors gazon)","open":false,"type":"Salle multisports"},{"name":"Association Sportive de La Banque de France","address":"4 Rue Marsollier","postal_code":"75056","city":"Paris","department":"Paris","long":2.33481,"lat":48.86763,"coating":"Synthétique (hors gazon)","open":false,"type":"Salle multisports"},{"name":"College Josephine Baker Ou Collège 600","address":"12 Rue Mariton","postal_code":"93070","city":"Saint-Ouen","department":"Seine-Saint-Denis","long":2.338,"lat":48.9066,"coating":"Bitume","open":false,"type":"Plateau EPS/Multisports/city-stades"},{"name":"Centre Municipal Des Sports","address":"9 Avenue de La Villa Antony","postal_code":"94069","city":"Saint-Maurice","department":"Val-de-Marne","long":2.456749,"lat":48.814672,"coating":"Béton","open":false,"type":"Plateau EPS/Multisports/city-stades"},{"name":"Terrain de Basket-Ball Lavoisier","address":"19 Avenue Lavoisier","postal_code":"92002","city":"Antony","department":"Hauts-de-Seine","long":2.31418,"lat":48.74805,"coating":"Bitume","open":false,"type":"Terrain de basket-ball"},{"name":"Gymnase Auguste Delaune","address":"21 Avenue Pierre Marie Curie","postal_code":"93029","city":"Drancy","department":"Seine-Saint-Denis","long":2.44996,"lat":48.9227,"coating":"Bitume","open":false,"type":"Plateau EPS/Multisports/city-stades"},{"name":"Terrain de Proximite Des Meuniers","address":"13 Rue Des Pervenches","postal_code":"92007","city":"Bagneux","department":"Hauts-de-Seine","long":2.3165,"lat":48.79805,"coating":"Stabilisé/cendrée","open":false,"type":"Plateau EPS/Multisports/city-stades"},{"name":"Salle Omnisports","address":"24 Rue de Villetaneuse","postal_code":"95427","city":"Montmagny","department":"Val-d'Oise","long":2.34644,"lat":48.971,"coating":"Synthétique (hors gazon)","open":false,"type":"Salle multisports"},{"name":"Gymnase Renaudel","address":"1 Rue Jules Guesde","postal_code":"92049","city":"Montrouge","department":"Hauts-de-Seine","long":2.304043,"lat":48.812016,"coating":"Parquet","open":false,"type":"Salle multisports"},{"name":"Gymnase Des Coteaux","address":"1 Rue Du Rond Point","postal_code":"93051","city":"Noisy-le-Grand","department":"Seine-Saint-Denis","long":2.56897,"lat":48.85367,"coating":"Synthétique (hors gazon)","open":false,"type":"Salle multisports"},{"name":"Fort de Bicetre","address":"21 Avenue Charles Gide","postal_code":"94043","city":"Kremlin-Bicêtre","department":"Val-de-Marne","long":2.35511,"lat":48.80437,"coating":"Synthétique (hors gazon)","open":false,"type":"Salle multisports"},{"name":"Complexe Sportif Marcel Cerdan","address":"15 Boulevard Heloise","postal_code":"95018","city":"Argenteuil","department":"Val-d'Oise","long":2.24976,"lat":48.93959,"coating":"Béton","open":false,"type":"Plateau EPS/Multisports/city-stades"},{"name":"Lycee Professionnel Guerin","address":"5 Rue Deves","postal_code":"92051","city":"Neuilly-sur-Seine","department":"Hauts-de-Seine","long":2.27081,"lat":48.8834,"coating":"Synthétique (hors gazon)","open":false,"type":"Salle multisports"}]
